country,iso3c,date,SPI.D1.MSC,SPI.D1.1.SNAU,SPI.D1.2.NABY,SPI.D1.3.CNIN,SPI.D1.4.CPIBY,SPI.D1.5.HOUS,SPI.D1.6.EMPL,SPI.D1.7.CGOV,SPI.D1.8.FINA,SPI.D1.9.MONY,SPI.D1.10.IDDS,SPI.D1.11.CRVS,SPI.D1.12.GSBP,SPI.D2.CS,SPI.D2.1.POPU,SPI.D2.2.AGRI,SPI.D2.3.BIZZ,SPI.D2.4.HOUS,SPI.D2.5.AGRI,SPI.D2.6.LABR,SPI.D2.7.HLTH,SPI.D2.8.BIZZ,SPI.D3.AKI,SPI.D3.POV,SPI.D3.FIES,SPI.D3.CHLD.MORT,SPI.D3.SE.LPV.PRIM.BMP,SPI.D3.MMRT,SPI.D3.SH.H2O.SMDW.ZS,SPI.D3.ELEC,SPI.D3.SL.UEM.TOTL.NE.ZS,SPI.D3.NV.IND.MANF.ZS,SPI.D3.SI.SPR.PC40.ZG,SPI.D3.ER.H2O.FWST.ZS,SPI.D3.EG.FEC.RNEW.ZS,SPI.D3.NE.CON.PRVT.CN,SPI.D3.QUART.GDP,SPI.D3.DT.TDS.DPPF.XP.ZS,SPI.D4.DPO,SPI.D4.1.CALD,SPI.D4.2.NADA,SPI.D4.3.PORT,SPI.D4.4.TIME,SPI.D4.5.META,SPI.D4.6.USER,SPI.D4.7.GEOS,SPI.OVRL.SCR,iso2c,capital,long,lat,regionID,region_iso2c,region,adminID,admin_iso2c,admin,incomeID,income_iso2c,income,lendingID,lending_iso2c,lending,countryname,SPI.FREQ.D3.CHLD.MORT,SPI.QUAL.D3.CHLD.MORT,SPI.FREQ.D3.MMRT,SPI.QUAL.D3.MMRT,SPI.FREQ.D3.DT.TDS.DPPF.XP.ZS,SPI.QUAL.D3.DT.TDS.DPPF.XP.ZS,population
Afghanistan,AFG,2016,33.3333333333333,0.5,0,0,0,1,0,0.5,0.5,1,0.5,0,0,12.5,0,0,0,1,0,0,0,0,40,0,1,0,0,0,0,1,0,1,0,0,1,1,0,1,28.5714285714286,0,0,0,1,0,1,0,28.6011904761905,AF,Kabul,69.1761,34.5228,SAS,8S,South Asia,SAS,8S,South Asia,LIC,XM,Low income,IDX,XI,IDA,NA,0,0,0,0,1,1,35383128
Angola,AGO,2016,37.5,0.5,0,1,0.5,1,0,0,0,1,0.5,0,0,25,1,0,1,0,0,0,0,0,40,0,1,0,0,0,0,1,0,1,0,0,1,1,0,1,0,0,0,0,0,0,0,0,25.625,AO,Luanda,13.242,-8.81155,SSF,ZG,Sub-Saharan Africa ,SSA,ZF,Sub-Saharan Africa (excluding high income),LMC,XN,Lower middle income,IBD,XF,IBRD,Angola,0,0,0,0,1,1,28842484
Albania,ALB,2016,79.1666666666667,0.5,1,1,0.5,1,0,1,1,1,0.5,1,1,50,1,1,0,1,0,1,0,0,73.3333333333333,1,1,1,0,0,1,1,1,1,0,0,1,1,1,1,85.7142857142857,1,0,1,1,1,1,1,72.0535714285714,AL,Tirane,19.8172,41.3317,ECS,Z7,Europe & Central Asia,ECA,7E,Europe & Central Asia (excluding high income),UMC,XT,Upper middle income,IBD,XF,IBRD,Albania,1,1,0,0,1,1,2876101
United Arab Emirates,ARE,2016,50,0.5,0.5,1,0.5,1,0,1,1,0,0.5,0,0,NA,NA,NA,NA,NA,NA,NA,NA,NA,26.6666666666667,0,0,1,0,0,0,0,0,1,0,0,1,1,0,0,42.8571428571429,0,0,1,1,1,0,0,NA,AE,Abu Dhabi,54.3705,24.4764,MEA,ZQ,Middle East & North Africa,NA,NA,NA,HIC,XD,High income,LNX,XX,Not classified,NA,1,1,0,0,0,0,9360980
Argentina,ARG,2016,45.8333333333333,1,0,0.5,0,1,0,1,0,0,1,1,0,50,1,1,0,1,0,1,0,0,60,0,1,1,0,1,0,0,1,1,0,0,1,1,1,1,71.4285714285714,1,1,0,1,1,0,1,56.8154761904762,AR,Buenos Aires,-58.4173,-34.6118,LCN,ZJ,Latin America & Caribbean ,LAC,XJ,Latin America & Caribbean (excluding high income),UMC,XT,Upper middle income,IBD,XF,IBRD,NA,1,1,1,1,NA,NA,43590368
Armenia,ARM,2016,79.1666666666667,0.5,1,1,0.5,1,1,0,0.5,1,1,1,1,50,1,1,0,1,0,1,0,0,80,1,1,1,0,1,1,1,1,1,0,0,1,1,1,1,85.7142857142857,1,1,1,1,1,1,0,73.7202380952381,AM,Yerevan,44.509,40.1596,ECS,Z7,Europe & Central Asia,ECA,7E,Europe & Central Asia (excluding high income),UMC,XT,Upper middle income,IBD,XF,IBRD,Armenia,1,1,1,1,1,1,2936146
Antigua and Barbuda,ATG,2016,33.3333333333333,0.5,0.5,0.5,0,0,0,0,0,1,0.5,1,0,25,1,1,0,0,0,0,0,0,23.3333333333333,0,0,0.5,0,1,0,0,0,1,0,0,1,0,0,0,0,0,0,0,0,0,0,0,20.4166666666667,AG,Saint John's,-61.8456,17.1175,LCN,ZJ,Latin America & Caribbean ,NA,NA,NA,HIC,XD,High income,IBD,XF,IBRD,NA,0,1,1,1,0,0,94527
Australia,AUS,2016,95.8333333333333,1,1,1,1,1,1,1,0.5,1,1,1,1,NA,NA,NA,NA,NA,NA,NA,NA,NA,53.3333333333333,0,1,1,0,1,0,0,1,1,0,0,1,1,1,0,100,1,1,1,1,1,1,1,NA,AU,Canberra,149.129,-35.282,EAS,Z4,East Asia & Pacific,NA,NA,NA,HIC,XD,High income,LNX,XX,Not classified,Australia,1,1,1,1,0,0,24190907
Austria,AUT,2016,91.6666666666667,1,1,1,1,1,0,1,1,1,1,1,1,NA,NA,NA,NA,NA,NA,NA,NA,NA,66.6666666666667,1,1,1,0,1,1,0,1,1,0,0,1,1,1,0,57.1428571428571,1,1,1,0,1,0,0,NA,AT,Vienna,16.3798,48.2201,ECS,Z7,Europe & Central Asia,NA,NA,NA,HIC,XD,High income,LNX,XX,Not classified,Austria,1,1,1,1,0,0,8736668
Azerbaijan,AZE,2016,62.5,0.5,0,1,1,1,0,0.5,0,1,0.5,1,1,37.5,1,1,0,1,0,0,0,0,63.3333333333333,0,0,0.5,0,1,1,1,1,1,0,0,1,1,1,1,85.7142857142857,1,0,1,1,1,1,1,62.2619047619048,AZ,Baku,49.8932,40.3834,ECS,Z7,Europe & Central Asia,ECA,7E,Europe & Central Asia (excluding high income),UMC,XT,Upper middle income,IBD,XF,IBRD,Azerbaijan,0,1,1,1,1,1,9757812
Burundi,BDI,2016,33.3333333333333,0.5,0,0.5,0.5,1,0,0,0,1,0.5,0,0,25,1,0,0,1,0,0,0,0,33.3333333333333,0,0,0,0,0,0,1,0,1,0,0,1,1,0,1,42.8571428571429,1,1,0,0,1,0,0,33.6309523809524,BI,Bujumbura,29.3639,-3.3784,SSF,ZG,Sub-Saharan Africa ,SSA,ZF,Sub-Saharan Africa (excluding high income),LIC,XM,Low income,IDX,XI,IDA,Burundi,0,0,0,0,1,1,10487998
Belgium,BEL,2016,87.5,1,1,1,0.5,1,0,1,1,1,1,1,1,NA,NA,NA,NA,NA,NA,NA,NA,NA,66.6666666666667,1,1,1,0,1,1,0,1,1,0,0,1,1,1,0,57.1428571428571,1,0,1,1,1,0,0,NA,BE,Brussels,4.36761,50.8371,ECS,Z7,Europe & Central Asia,NA,NA,NA,HIC,XD,High income,LNX,XX,Not classified,Belgium,1,1,1,1,0,0,11331422
Benin,BEN,2016,20.8333333333333,0,0.5,0.5,0.5,0,0,0,0.5,0,0.5,0,0,62.5,1,0,1,1,0,1,1,0,40,0.5,0,0.5,0,0,0,1,0,1,0,0,1,1,0,1,28.5714285714286,0,1,0,0,1,0,0,37.9761904761905,BJ,Porto-Novo,2.6323,6.4779,SSF,ZG,Sub-Saharan Africa ,SSA,ZF,Sub-Saharan Africa (excluding high income),LIC,XM,Low income,IDX,XI,IDA,Benin,1,0,0,0,1,1,10872067
Burkina Faso,BFA,2016,25,0.5,0,0.5,0.5,1,0,0,0,0,0.5,0,0,37.5,1,1,0,1,0,0,0,0,40,0,1,0,0,0,0,1,0,1,0,0,1,1,0,1,42.8571428571429,0,1,1,1,0,0,0,36.3392857142857,BF,Ouagadougou,-1.53395,12.3605,SSF,ZG,Sub-Saharan Africa ,SSA,ZF,Sub-Saharan Africa (excluding high income),LIC,XM,Low income,IDX,XI,IDA,Burkina Faso,0,0,0,0,1,1,18646378
Bangladesh,BGD,2016,33.3333333333333,0.5,0.5,1,0.5,0,0,0,0,1,0.5,0,0,50,1,1,0,0,0,1,1,0,53.3333333333333,0,1,1,0,0,1,1,0,1,0,0,1,1,0,1,28.5714285714286,0,1,0,0,1,0,0,41.3095238095238,BD,Dhaka,90.4113,23.7055,SAS,8S,South Asia,SAS,8S,South Asia,LMC,XN,Lower middle income,IDX,XI,IDA,Bangladesh,1,1,0,0,NA,NA,157970840
Bulgaria,BGR,2016,87.5,0.5,1,1,1,1,1,1,1,1,1,1,0,62.5,1,1,0,1,1,1,0,0,73.3333333333333,1,1,1,0,1,1,0,1,1,0,0,1,1,1,1,71.4285714285714,1,0,1,1,1,1,0,73.6904761904762,BG,Sofia,23.3238,42.7105,ECS,Z7,Europe & Central Asia,ECA,7E,Europe & Central Asia (excluding high income),UMC,XT,Upper middle income,IBD,XF,IBRD,Bulgaria,1,1,1,1,1,1,7127822
Bahrain,BHR,2016,41.6666666666667,0.5,0.5,0.5,0.5,1,0,0,0.5,0,0.5,1,0,NA,NA,NA,NA,NA,NA,NA,NA,NA,46.6666666666667,0,0,1,0,1,1,0,0,1,0,0,1,1,1,0,28.5714285714286,0,0,1,1,0,0,0,NA,BH,Manama,50.5354,26.1921,MEA,ZQ,Middle East & North Africa,NA,NA,NA,HIC,XD,High income,LNX,XX,Not classified,NA,1,1,1,1,0,0,1425791
"Bahamas, The",BHS,2016,33.3333333333333,0.5,0.5,1,0.5,0,0,0.5,0.5,0,0.5,0,0,NA,NA,NA,NA,NA,NA,NA,NA,NA,36.6666666666667,0,0,0.5,0,1,0,0,1,1,0,0,1,1,0,0,0,0,0,0,0,0,0,0,NA,BS,Nassau,-77.339,25.0661,LCN,ZJ,Latin America & Caribbean ,NA,NA,NA,HIC,XD,High income,LNX,XX,Not classified,NA,0,1,1,1,0,0,377931
Bosnia and Herzegovina,BIH,2016,66.6666666666667,0.5,1,1,0.5,1,0,1,0.5,1,0.5,1,0,37.5,1,0,0,1,0,1,0,0,70,0,1,1,0,0.5,1,1,1,1,0,0,1,1,1,1,28.5714285714286,1,0,0,0,1,0,0,50.6845238095238,BA,Sarajevo,18.4214,43.8607,ECS,Z7,Europe & Central Asia,ECA,7E,Europe & Central Asia (excluding high income),UMC,XT,Upper middle income,IBD,XF,IBRD,Bosnia and Herzegovina,1,1,0,1,1,1,3386267
Belarus,BLR,2016,83.3333333333333,0.5,1,1,1,1,0,1,0.5,1,1,1,1,25,1,0,0,1,0,0,0,0,66.6666666666667,1,0,1,0,1,1,0,1,1,0,0,1,1,1,1,57.1428571428571,1,0,1,0,1,1,0,58.0357142857143,BY,Minsk,27.5766,53.9678,ECS,Z7,Europe & Central Asia,ECA,7E,Europe & Central Asia (excluding high income),UMC,XT,Upper middle income,IBD,XF,IBRD,Belarus,1,1,1,1,1,1,9501534
Belize,BLZ,2016,29.1666666666667,0.5,0,0.5,0,1,0,0,0,1,0.5,0,0,62.5,1,1,0,1,0,1,1,0,53.3333333333333,0,0,1,0,1,0,1,1,1,0,0,1,1,0,1,42.8571428571429,1,0,0,1,0,0,1,46.9642857142857,BZ,Belmopan,-88.7713,17.2534,LCN,ZJ,Latin America & Caribbean ,LAC,XJ,Latin America & Caribbean (excluding high income),UMC,XT,Upper middle income,IBD,XF,IBRD,Belize,1,1,1,1,1,1,368400
Bolivia,BOL,2016,16.6666666666667,0,0,0.5,0,0,0,0,0,1,0.5,0,0,37.5,1,1,0,1,0,0,0,0,46.6666666666667,1,0,0,0,0,0,0,1,1,0,0,1,1,1,1,42.8571428571429,0,1,0,1,0,0,1,35.922619047619,BO,La Paz,-66.1936,-13.9908,LCN,ZJ,Latin America & Caribbean ,LAC,XJ,Latin America & Caribbean (excluding high income),LMC,XN,Lower middle income,IBD,XF,IBRD,Bolivia,0,0,0,0,1,1,11031813
Brazil,BRA,2016,54.1666666666667,1,0,1,0.5,1,0,1,0,1,1,0,0,62.5,1,1,0,1,1,1,0,0,63.3333333333333,1,0,1,0,0.5,0,1,1,1,0,0,1,1,1,1,71.4285714285714,1,1,1,1,1,0,0,62.8571428571429,BR,Brasilia,-47.9292,-15.7801,LCN,ZJ,Latin America & Caribbean ,LAC,XJ,Latin America & Caribbean (excluding high income),UMC,XT,Upper middle income,IBD,XF,IBRD,Brazil,1,1,1,0,1,1,206163058
Barbados,BRB,2016,33.3333333333333,0.5,0,0.5,0,0,0,0,0.5,1,0.5,1,0,NA,NA,NA,NA,NA,NA,NA,NA,NA,30,0,0,0.5,0,1,0,0,1,0,0,0,1,1,0,0,0,0,0,0,0,0,0,0,NA,BB,Bridgetown,-59.6105,13.0935,LCN,ZJ,Latin America & Caribbean ,NA,NA,NA,HIC,XD,High income,LNX,XX,Not classified,NA,0,1,1,1,0,0,285796
Brunei Darussalam,BRN,2016,37.5,0.5,0,0.5,0,1,0,0,0,1,0.5,1,0,NA,NA,NA,NA,NA,NA,NA,NA,NA,40,0,0,1,0,1,0,0,0,1,0,0,1,1,1,0,57.1428571428571,1,0,1,1,1,0,0,NA,BN,Bandar Seri Begawan,114.946,4.94199,EAS,Z4,East Asia & Pacific,NA,NA,NA,HIC,XD,High income,LNX,XX,Not classified,NA,1,1,1,1,0,0,419800
Bhutan,BTN,2016,20.8333333333333,0.5,0,0,0,0,0,0.5,0,1,0.5,0,0,37.5,0,1,0,1,0,1,0,0,46.6666666666667,0,0,0,0,0,1,1,1,1,0,0,1,1,0,1,42.8571428571429,0,1,1,1,0,0,0,36.9642857142857,BT,Thimphu,89.6177,27.5768,SAS,8S,South Asia,SAS,8S,South Asia,LMC,XN,Lower middle income,IDX,XI,IDA,Bhutan,0,0,0,0,1,1,736709
Botswana,BWA,2016,29.1666666666667,0.5,0.5,0,0,1,0,0,0,1,0.5,0,0,25,1,1,0,0,0,0,0,0,50,0,1,0,0,0.5,0,1,0,1,0,0,1,1,1,1,57.1428571428571,1,1,0,0,1,0,1,40.3273809523809,BW,Gaborone,25.9201,-24.6544,SSF,ZG,Sub-Saharan Africa ,SSA,ZF,Sub-Saharan Africa (excluding high income),UMC,XT,Upper middle income,IBD,XF,IBRD,Botswana,0,0,1,0,NA,NA,2159944
Central African Republic,CAF,2016,16.6666666666667,0,0,0.5,0,0,0,0,0,1,0.5,0,0,0,0,0,0,0,0,0,0,0,20,0,0,0,0,0,0,0,0,1,0,0,1,1,0,0,0,0,0,0,0,0,0,0,9.16666666666667,CF,Bangui,21.6407,5.63056,SSF,ZG,Sub-Saharan Africa ,SSA,ZF,Sub-Saharan Africa (excluding high income),LIC,XM,Low income,IDX,XI,IDA,Central African Republic,0,0,0,0,NA,NA,4537687
Canada,CAN,2016,91.6666666666667,1,1,1,0.5,1,1,1,0.5,1,1,1,1,NA,NA,NA,NA,NA,NA,NA,NA,NA,60,0,1,1,0,1,1,0,1,1,0,0,1,1,1,0,85.7142857142857,1,1,1,1,1,1,0,NA,CA,Ottawa,-75.6919,45.4215,NAC,XU,North America,NA,NA,NA,HIC,XD,High income,LNX,XX,Not classified,Canada,1,1,1,1,0,0,36109487
Switzerland,CHE,2016,75,1,1,1,1,1,0,1,1,0,1,1,0,NA,NA,NA,NA,NA,NA,NA,NA,NA,66.6666666666667,1,1,1,0,1,1,0,1,1,0,0,1,1,1,0,71.4285714285714,1,1,1,1,1,0,0,NA,CH,Bern,7.44821,46.948,ECS,Z7,Europe & Central Asia,NA,NA,NA,HIC,XD,High income,LNX,XX,Not classified,Switzerland,1,1,1,1,0,0,8373338
Chile,CHL,2016,62.5,0.5,0.5,0.5,0.5,1,0,0,0.5,1,1,1,1,50,1,1,0,1,0,1,0,0,70,1,1,1,0,0.5,1,1,1,1,0,0,1,1,1,0,71.4285714285714,1,1,1,1,1,0,0,63.4821428571429,CL,Santiago,-70.6475,-33.475,LCN,ZJ,Latin America & Caribbean ,NA,NA,NA,HIC,XD,High income,IBD,XF,IBRD,Chile,1,1,1,0,0,0,18209068
China,CHN,2016,45.8333333333333,0.5,0,1,1,1,0,0.5,0.5,0,1,0,0,37.5,1,1,0,1,0,0,0,0,63.3333333333333,1,1,1,0,0.5,0,0,1,1,0,0,1,1,1,1,71.4285714285714,1,0,1,1,1,0,1,54.5238095238095,CN,Beijing,116.286,40.0495,EAS,Z4,East Asia & Pacific,EAP,4E,East Asia & Pacific (excluding high income),UMC,XT,Upper middle income,IBD,XF,IBRD,China,1,1,1,0,NA,NA,1378665000
Cote d'Ivoire,CIV,2016,16.6666666666667,0,0.5,0.5,0.5,0,0,0,0,0,0.5,0,0,25,1,1,0,0,0,0,0,0,50,0,1,0.5,0,0,1,0,1,1,0,0,1,1,0,1,28.5714285714286,0,1,0,1,0,0,0,30.0595238095238,CI,Yamoussoukro,-4.0305,5.332,SSF,ZG,Sub-Saharan Africa ,SSA,ZF,Sub-Saharan Africa (excluding high income),LMC,XN,Lower middle income,IDX,XI,IDA,Cote d'Ivoire,1,0,0,0,1,1,23822714
Cameroon,CMR,2016,33.3333333333333,0.5,0,1,0,1,0,0,0,1,0.5,0,0,12.5,0,0,0,0,0,0,1,0,43.3333333333333,0,1,0.5,0,0,0,1,0,1,0,0,1,1,0,1,28.5714285714286,0,1,0,1,0,0,0,29.4345238095238,CM,Yaounde,11.5174,3.8721,SSF,ZG,Sub-Saharan Africa ,SSA,ZF,Sub-Saharan Africa (excluding high income),LMC,XN,Lower middle income,IDB,XH,Blend,Cameroon,1,0,0,0,1,1,23926539
"Congo, Dem. Rep.",COD,2016,16.6666666666667,0,0,0.5,0,0,0,0,0,1,0.5,0,0,25,0,0,0,0,0,0,1,1,26.6666666666667,0,0,0,0,0,0,0,0,1,0,0,1,1,0,1,0,0,0,0,0,0,0,0,17.0833333333333,CD,Kinshasa,15.3222,-4.325,SSF,ZG,Sub-Saharan Africa ,SSA,ZF,Sub-Saharan Africa (excluding high income),LIC,XM,Low income,IDX,XI,IDA,NA,0,0,0,0,NA,NA,78789127
"Congo, Rep.",COG,2016,29.1666666666667,0,0,0,0,1,0,1,0,1,0.5,0,0,25,1,1,0,0,0,0,0,0,33.3333333333333,0,0,0,0,0,1,0,0,1,0,0,1,1,0,1,0,0,0,0,0,0,0,0,21.875,CG,Brazzaville,15.2662,-4.2767,SSF,ZG,Sub-Saharan Africa ,SSA,ZF,Sub-Saharan Africa (excluding high income),LMC,XN,Lower middle income,IDB,XH,Blend,NA,0,0,0,0,1,1,4980999
Colombia,COL,2016,50,0.5,0,1,0.5,0,0,1,0,1,1,0,1,75,1,1,0,1,1,1,0,1,66.6666666666667,1,0,0,0,1,1,1,1,1,0,0,1,1,1,1,100,1,1,1,1,1,1,1,72.9166666666667,CO,Bogota,-74.082,4.60987,LCN,ZJ,Latin America & Caribbean ,LAC,XJ,Latin America & Caribbean (excluding high income),UMC,XT,Upper middle income,IBD,XF,IBRD,Colombia,0,0,1,1,1,1,48171392
Comoros,COM,2016,20.8333333333333,0,0,0,0,1,0,0,0,1,0.5,0,0,0,0,0,0,0,0,0,0,0,26.6666666666667,0,0,0,0,0,0,1,0,0,0,0,1,1,0,1,0,0,0,0,0,0,0,0,11.875,KM,Moroni,43.2418,-11.6986,SSF,ZG,Sub-Saharan Africa ,SSA,ZF,Sub-Saharan Africa (excluding high income),LMC,XN,Lower middle income,IDX,XI,IDA,Comoros,0,0,0,0,1,1,795592
Cabo Verde,CPV,2016,33.3333333333333,0.5,0.5,0,0,0,0,0.5,0,1,0.5,1,0,37.5,1,1,0,0,0,1,0,0,53.3333333333333,0,1,1,0,1,0,0,0,1,0,0,1,1,1,1,71.4285714285714,1,1,0,1,1,0,1,48.8988095238095,CV,Praia,-23.5087,14.9218,SSF,ZG,Sub-Saharan Africa ,SSA,ZF,Sub-Saharan Africa (excluding high income),LMC,XN,Lower middle income,IDB,XH,Blend,Cabo Verde,1,1,1,1,1,1,531146
Costa Rica,CRI,2016,58.3333333333333,0.5,0,1,0.5,1,0,1,0,1,1,1,0,50,1,1,0,1,0,1,0,0,80,1,1,1,0,1,1,1,1,1,0,0,1,1,1,1,100,1,1,1,1,1,1,1,72.0833333333333,CR,San Jose,-84.0089,9.63701,LCN,ZJ,Latin America & Caribbean ,LAC,XJ,Latin America & Caribbean (excluding high income),UMC,XT,Upper middle income,IBD,XF,IBRD,Costa Rica,1,1,1,1,1,1,4899345
Cyprus,CYP,2016,83.3333333333333,0.5,1,1,0.5,1,0,1,1,1,1,1,1,NA,NA,NA,NA,NA,NA,NA,NA,NA,56.6666666666667,1,0,0.5,0,1,1,0,1,1,0,0,1,1,1,0,42.8571428571429,1,0,0,1,1,0,0,NA,CY,Nicosia,33.3736,35.1676,ECS,Z7,Europe & Central Asia,NA,NA,NA,HIC,XD,High income,LNX,XX,Not classified,Cyprus,0,1,1,1,0,0,1170187
Czech Republic,CZE,2016,83.3333333333333,1,1,1,0.5,1,0,0.5,1,1,1,1,1,NA,NA,NA,NA,NA,NA,NA,NA,NA,66.6666666666667,1,1,1,0,1,1,0,1,1,0,0,1,1,1,0,42.8571428571429,0,0,1,1,1,0,0,NA,CZ,Prague,14.4205,50.0878,ECS,Z7,Europe & Central Asia,NA,NA,NA,HIC,XD,High income,LNX,XX,Not classified,Czech Republic,1,1,1,1,0,0,10566332
Germany,DEU,2016,87.5,1,1,1,0.5,1,0,1,1,1,1,1,1,NA,NA,NA,NA,NA,NA,NA,NA,NA,66.6666666666667,1,1,1,0,1,1,0,1,1,0,0,1,1,1,0,71.4285714285714,1,1,1,1,1,0,0,NA,DE,Berlin,13.4115,52.5235,ECS,Z7,Europe & Central Asia,NA,NA,NA,HIC,XD,High income,LNX,XX,Not classified,Germany,1,1,1,1,0,0,82348669
Djibouti,DJI,2016,8.33333333333333,0,0,0,0,0,0,0,0.5,0,0.5,0,0,12.5,1,0,0,0,0,0,0,0,33.3333333333333,0,0,0,0,0,0,1,0,1,0,0,1,1,0,1,0,0,0,0,0,0,0,0,13.5416666666667,DJ,Djibouti,43.1425,11.5806,MEA,ZQ,Middle East & North Africa,MNA,XQ,Middle East & North Africa (excluding high income),LMC,XN,Lower middle income,IDX,XI,IDA,Djibouti,0,0,NA,NA,1,1,929112
Dominica,DMA,2016,45.8333333333333,0.5,0.5,0.5,0.5,1,0,0,0,1,0.5,1,0,12.5,1,0,0,0,0,0,0,0,23.3333333333333,0,0,0.5,0,0,0,0,0,1,0,0,1,0,0,1,0,0,0,0,0,0,0,0,20.4166666666667,DM,Roseau,-61.39,15.2976,LCN,ZJ,Latin America & Caribbean ,LAC,XJ,Latin America & Caribbean (excluding high income),UMC,XT,Upper middle income,IDB,XH,Blend,NA,0,1,NA,NA,1,1,71307
Denmark,DNK,2016,83.3333333333333,1,1,1,1,1,0,1,1,1,1,1,0,NA,NA,NA,NA,NA,NA,NA,NA,NA,66.6666666666667,1,1,1,0,1,1,0,1,1,0,0,1,1,1,0,57.1428571428571,1,0,1,1,1,0,0,NA,DK,Copenhagen,12.5681,55.6763,ECS,Z7,Europe & Central Asia,NA,NA,NA,HIC,XD,High income,LNX,XX,Not classified,Denmark,1,1,1,1,0,0,5728010
Dominican Republic,DOM,2016,54.1666666666667,1,0.5,1,0.5,1,0,1,0,1,0.5,0,0,50,1,0,0,1,0,1,1,0,56.6666666666667,1,0,0,0,0.5,0,1,1,1,0,0,1,1,1,1,57.1428571428571,0,1,1,1,1,0,0,54.4940476190476,DO,Santo Domingo,-69.8908,18.479,LCN,ZJ,Latin America & Caribbean ,LAC,XJ,Latin America & Caribbean (excluding high income),UMC,XT,Upper middle income,IBD,XF,IBRD,Dominican Republic,0,0,1,0,1,1,10397743
Algeria,DZA,2016,25,0,0,0.5,0,1,0,0,0,1,0.5,0,0,25,1,0,1,0,0,0,0,0,46.6666666666667,0,0,1,0,0,0,1,1,1,0,0,1,1,0,1,14.2857142857143,0,0,1,0,0,0,0,27.7380952380952,DZ,Algiers,3.05097,36.7397,MEA,ZQ,Middle East & North Africa,MNA,XQ,Middle East & North Africa (excluding high income),UMC,XT,Upper middle income,IBD,XF,IBRD,Algeria,1,1,0,0,1,1,40551404
Ecuador,ECU,2016,50,1,0.5,1,0,1,0,0,0.5,1,1,0,0,62.5,1,0,1,1,0,1,0,1,73.3333333333333,1,1,0.5,0,0.5,1,1,1,1,0,0,1,1,1,1,71.4285714285714,1,1,1,1,1,0,0,64.3154761904762,EC,Quito,-78.5243,-0.229498,LCN,ZJ,Latin America & Caribbean ,LAC,XJ,Latin America & Caribbean (excluding high income),UMC,XT,Upper middle income,IBD,XF,IBRD,Ecuador,0,1,1,0,1,1,16491115
"Egypt, Arab Rep.",EGY,2016,66.6666666666667,0.5,0.5,1,0.5,1,0,0,0.5,1,1,1,1,50,1,1,0,1,0,1,0,0,53.3333333333333,0,1,0,0,1,0,0,1,1,0,0,1,1,1,1,71.4285714285714,1,1,1,1,1,0,0,60.3571428571429,EG,Cairo,31.2461,30.0982,MEA,ZQ,Middle East & North Africa,MNA,XQ,Middle East & North Africa (excluding high income),LMC,XN,Lower middle income,IBD,XF,IBRD,NA,0,0,1,1,1,1,94447072
Eritrea,ERI,2016,8.33333333333333,0,0,0,0,0,0,0,0,1,0,0,0,0,0,0,0,0,0,0,0,0,6.66666666666667,0,0,0,0,0,0,0,0,0,0,0,1,0,0,0,0,0,0,0,0,0,0,0,3.75,ER,Asmara,38.9183,15.3315,SSF,ZG,Sub-Saharan Africa ,SSA,ZF,Sub-Saharan Africa (excluding high income),LIC,XM,Low income,IDX,XI,IDA,NA,0,0,0,0,0,0,NA
Spain,ESP,2016,87.5,1,1,1,0.5,1,0,1,1,1,1,1,1,NA,NA,NA,NA,NA,NA,NA,NA,NA,66.6666666666667,1,1,1,0,1,1,0,1,1,0,0,1,1,1,0,85.7142857142857,1,1,1,1,1,1,0,NA,ES,Madrid,-3.70327,40.4167,ECS,Z7,Europe & Central Asia,NA,NA,NA,HIC,XD,High income,LNX,XX,Not classified,Spain,1,1,1,1,0,0,46484062
Estonia,EST,2016,83.3333333333333,1,1,1,1,1,1,1,0,1,1,1,0,NA,NA,NA,NA,NA,NA,NA,NA,NA,66.6666666666667,1,1,1,0,1,1,0,1,1,0,0,1,1,1,0,85.7142857142857,1,0,1,1,1,1,1,NA,EE,Tallinn,24.7586,59.4392,ECS,Z7,Europe & Central Asia,NA,NA,NA,HIC,XD,High income,LNX,XX,Not classified,Estonia,1,1,1,1,0,0,1315790
Ethiopia,ETH,2016,16.6666666666667,0.5,0.5,0,0,0,0,0,0.5,0,0.5,0,0,50,1,0,0,0,1,1,0,1,43.3333333333333,0,0,0.5,0,0,1,1,0,1,0,0,1,1,0,1,14.2857142857143,0,1,0,0,0,0,0,31.0714285714286,ET,Addis Ababa,38.7468,9.02274,SSF,ZG,Sub-Saharan Africa ,SSA,ZF,Sub-Saharan Africa (excluding high income),LIC,XM,Low income,IDX,XI,IDA,Ethiopia,1,0,0,0,1,1,103603501
Finland,FIN,2016,91.6666666666667,1,1,1,1,1,0,1,1,1,1,1,1,NA,NA,NA,NA,NA,NA,NA,NA,NA,66.6666666666667,1,1,1,0,1,1,0,1,1,0,0,1,1,1,0,71.4285714285714,1,1,1,1,1,0,0,NA,FI,Helsinki,24.9525,60.1608,ECS,Z7,Europe & Central Asia,NA,NA,NA,HIC,XD,High income,LNX,XX,Not classified,Finland,1,1,1,1,0,0,5495303
Fiji,FJI,2016,37.5,0.5,0,1,0.5,0,0,0,0,1,0.5,1,0,37.5,1,1,0,1,0,0,0,0,43.3333333333333,0,0,0.5,0,1,0,1,1,1,0,0,1,0,0,1,28.5714285714286,0,1,0,1,0,0,0,36.7261904761905,FJ,Suva,178.399,-18.1149,EAS,Z4,East Asia & Pacific,EAP,4E,East Asia & Pacific (excluding high income),UMC,XT,Upper middle income,IDB,XH,Blend,Fiji,0,1,1,1,1,1,872399
France,FRA,2016,91.6666666666667,1,1,1,1,1,0,1,1,1,1,1,1,NA,NA,NA,NA,NA,NA,NA,NA,NA,66.6666666666667,1,1,1,0,1,1,0,1,1,0,0,1,1,1,0,85.7142857142857,1,1,1,1,1,1,0,NA,FR,Paris,2.35097,48.8566,ECS,Z7,Europe & Central Asia,NA,NA,NA,HIC,XD,High income,LNX,XX,Not classified,France,1,1,1,1,0,0,66721256
"Micronesia, Fed. Sts.",FSM,2016,16.6666666666667,0.5,0,0,0,1,0,0,0,0,0.5,0,0,12.5,1,0,0,0,0,0,0,0,13.3333333333333,0,0,0,0,0,0,0,0,1,0,0,1,0,0,0,28.5714285714286,0,0,0,1,1,0,0,17.7678571428571,FM,Palikir,158.185,6.91771,EAS,Z4,East Asia & Pacific,EAP,4E,East Asia & Pacific (excluding high income),LMC,XN,Lower middle income,IDX,XI,IDA,NA,0,0,NA,NA,0,0,110215
Gabon,GAB,2016,20.8333333333333,0.5,0,0.5,0,0,0,0,0,1,0.5,0,0,12.5,1,0,0,0,0,0,0,0,33.3333333333333,0,0,0,0,0,0,1,0,1,0,0,1,1,0,1,14.2857142857143,0,0,0,1,0,0,0,20.2380952380952,GA,Libreville,9.45162,0.38832,SSF,ZG,Sub-Saharan Africa ,SSA,ZF,Sub-Saharan Africa (excluding high income),UMC,XT,Upper middle income,IBD,XF,IBRD,Gabon,0,0,0,0,NA,NA,2007873
United Kingdom,GBR,2016,75,1,1,1,1,0,0,1,1,0,1,1,1,NA,NA,NA,NA,NA,NA,NA,NA,NA,56.6666666666667,1,0,1,0,0.5,1,0,1,1,0,0,1,1,1,0,85.7142857142857,1,1,1,1,1,0,1,NA,GB,London,-0.126236,51.5002,ECS,Z7,Europe & Central Asia,NA,NA,NA,HIC,XD,High income,LNX,XX,Not classified,United Kingdom,1,1,1,0,0,0,65611593
Georgia,GEO,2016,79.1666666666667,0.5,1,0.5,0.5,1,1,0.5,0.5,1,1,1,1,50,1,1,0,1,0,1,0,0,80,1,1,1,0,1,1,1,1,1,0,0,1,1,1,1,71.4285714285714,1,1,0,1,1,0,1,70.1488095238095,GE,Tbilisi,44.793,41.71,ECS,Z7,Europe & Central Asia,ECA,7E,Europe & Central Asia (excluding high income),UMC,XT,Upper middle income,IBD,XF,IBRD,Georgia,1,1,1,1,1,1,3727505
Ghana,GHA,2016,41.6666666666667,0.5,0.5,1,0.5,1,0,0,0,1,0.5,0,0,37.5,1,0,0,1,0,0,1,0,53.3333333333333,0.5,1,0.5,0,0,1,1,0,1,0,0,1,1,0,1,42.8571428571429,1,1,0,0,0,1,0,43.8392857142857,GH,Accra,-0.20795,5.57045,SSF,ZG,Sub-Saharan Africa ,SSA,ZF,Sub-Saharan Africa (excluding high income),LMC,XN,Lower middle income,IDX,XI,IDA,Ghana,1,0,0,0,1,1,28481946
Guinea,GIN,2016,8.33333333333333,0.5,0,0,0,0,0,0,0,0,0.5,0,0,12.5,1,0,0,0,0,0,0,0,40,0,1,0,0,0,0,1,0,1,0,0,1,1,0,1,14.2857142857143,0,1,0,0,0,0,0,18.7797619047619,GN,Conakry,-13.7,9.51667,SSF,ZG,Sub-Saharan Africa ,SSA,ZF,Sub-Saharan Africa (excluding high income),LIC,XM,Low income,IDX,XI,IDA,Guinea,0,0,0,0,1,1,11738441
"Gambia, The",GMB,2016,25,0.5,0,0.5,0,0,0,0.5,0,1,0.5,0,0,25,1,1,0,0,0,0,0,0,33.3333333333333,0,1,0,0,0,0,0,0,1,0,0,1,1,0,1,14.2857142857143,0,1,0,0,0,0,0,24.4047619047619,GM,Banjul,-16.5885,13.4495,SSF,ZG,Sub-Saharan Africa ,SSA,ZF,Sub-Saharan Africa (excluding high income),LIC,XM,Low income,IDX,XI,IDA,"Gambia, The",0,0,0,0,1,1,2149139
Guinea-Bissau,GNB,2016,12.5,0.5,0,0,0.5,0,0,0,0,0,0.5,0,0,25,1,0,0,0,0,0,1,0,33.3333333333333,0,0,0,0,0,0,1,0,1,0,0,1,1,0,1,14.2857142857143,0,1,0,0,0,0,0,21.2797619047619,GW,Bissau,-15.1804,11.8037,SSF,ZG,Sub-Saharan Africa ,SSA,ZF,Sub-Saharan Africa (excluding high income),LIC,XM,Low income,IDX,XI,IDA,Guinea-Bissau,0,0,0,0,NA,NA,1782437
Equatorial Guinea,GNQ,2016,16.6666666666667,0,0.5,0,0.5,0,0,0,0,1,0,0,0,25,1,1,0,0,0,0,0,0,26.6666666666667,0,0,0,0,0,0,1,0,1,0,0,1,1,0,0,0,0,0,0,0,0,0,0,17.0833333333333,GQ,Malabo,8.7741,3.7523,SSF,ZG,Sub-Saharan Africa ,SSA,ZF,Sub-Saharan Africa (excluding high income),UMC,XT,Upper middle income,IBD,XF,IBRD,NA,0,0,0,0,0,0,1215179
Greece,GRC,2016,79.1666666666667,1,1,1,0.5,1,0,1,1,1,1,1,0,NA,NA,NA,NA,NA,NA,NA,NA,NA,66.6666666666667,1,1,1,0,1,1,0,1,1,0,0,1,1,1,0,57.1428571428571,1,1,0,0,1,1,0,NA,GR,Athens,23.7166,37.9792,ECS,Z7,Europe & Central Asia,NA,NA,NA,HIC,XD,High income,LNX,XX,Not classified,Greece,1,1,1,1,0,0,10775971
Grenada,GRD,2016,33.3333333333333,0,0.5,0.5,0.5,0,0,0,0,1,0.5,1,0,25,1,1,0,0,0,0,0,0,43.3333333333333,0,0,0.5,0,1,1,0,1,1,0,0,1,0,0,1,0,0,0,0,0,0,0,0,25.4166666666667,GD,Saint George's,-61.7449,12.0653,LCN,ZJ,Latin America & Caribbean ,LAC,XJ,Latin America & Caribbean (excluding high income),UMC,XT,Upper middle income,IDB,XH,Blend,NA,0,1,1,1,1,1,110261
Guatemala,GTM,2016,33.3333333333333,0.5,0,0.5,0.5,0,0,0,0,1,0.5,1,0,37.5,0,0,0,1,1,1,0,0,66.6666666666667,0,1,0,0,1,1,1,1,1,0,0,1,1,1,1,28.5714285714286,0,1,0,1,0,0,0,41.5178571428571,GT,Guatemala City,-90.5328,14.6248,LCN,ZJ,Latin America & Caribbean ,LAC,XJ,Latin America & Caribbean (excluding high income),UMC,XT,Upper middle income,IBD,XF,IBRD,Guatemala,0,0,1,1,1,1,16583060
Guyana,GUY,2016,33.3333333333333,0.5,0.5,1,0.5,0,0,0,0,1,0.5,0,0,25,1,0,0,0,0,0,1,0,40,0,0,0,0,1,0,1,0,1,0,0,1,1,0,1,0,0,0,0,0,0,0,0,24.5833333333333,GY,Georgetown,-58.1548,6.80461,LCN,ZJ,Latin America & Caribbean ,LAC,XJ,Latin America & Caribbean (excluding high income),UMC,XT,Upper middle income,IDX,XI,IDA,Guyana,0,0,1,1,1,1,771366
Honduras,HND,2016,37.5,0.5,0,0.5,0,1,0,1,0,1,0.5,0,0,50,1,0,0,1,1,1,0,0,56.6666666666667,1,1,0,0,0.5,0,1,1,1,0,0,1,1,0,1,28.5714285714286,0,1,0,0,0,1,0,43.1845238095238,HN,Tegucigalpa,-87.4667,15.1333,LCN,ZJ,Latin America & Caribbean ,LAC,XJ,Latin America & Caribbean (excluding high income),LMC,XN,Lower middle income,IDX,XI,IDA,Honduras,0,0,1,0,1,1,9270795
Croatia,HRV,2016,79.1666666666667,0.5,1,1,0.5,1,1,0,0.5,1,1,1,1,62.5,1,1,0,1,1,1,0,0,66.6666666666667,1,1,1,0,1,1,0,1,1,0,0,1,1,1,0,85.7142857142857,1,0,1,1,1,1,1,73.5119047619048,HR,Zagreb,15.9614,45.8069,ECS,Z7,Europe & Central Asia,NA,NA,NA,HIC,XD,High income,IBD,XF,IBRD,Croatia,1,1,1,1,0,0,4174349
Haiti,HTI,2016,20.8333333333333,0,0,0,0,1,0,0,0,1,0.5,0,0,12.5,0,1,0,0,0,0,0,0,30,0.5,0,0,0,0,0,1,0,0,0,0,1,1,0,1,14.2857142857143,0,0,0,0,1,0,0,19.4047619047619,HT,Port-au-Prince,-72.3288,18.5392,LCN,ZJ,Latin America & Caribbean ,LAC,XJ,Latin America & Caribbean (excluding high income),LIC,XM,Low income,IDX,XI,IDA,Haiti,0,0,0,0,1,1,10839970
Hungary,HUN,2016,100,1,1,1,1,1,1,1,1,1,1,1,1,NA,NA,NA,NA,NA,NA,NA,NA,NA,66.6666666666667,1,1,1,0,1,1,0,1,1,0,0,1,1,1,0,100,1,1,1,1,1,1,1,NA,HU,Budapest,19.0408,47.4984,ECS,Z7,Europe & Central Asia,NA,NA,NA,HIC,XD,High income,LNX,XX,Not classified,Hungary,1,1,1,1,0,0,9814023
Indonesia,IDN,2016,54.1666666666667,0.5,0.5,1,0.5,0,0,1,1,1,1,0,0,62.5,1,1,0,1,0,1,0,1,63.3333333333333,1,1,0.5,0,0,0,1,1,1,0,0,1,1,1,1,71.4285714285714,1,1,1,1,1,0,0,62.8571428571429,ID,Jakarta,106.83,-6.19752,EAS,Z4,East Asia & Pacific,EAP,4E,East Asia & Pacific (excluding high income),LMC,XN,Lower middle income,IBD,XF,IBRD,Indonesia,1,0,0,0,1,1,261554226
India,IND,2016,50,1,0.5,0.5,0.5,1,0,0.5,1,0,1,0,0,75,1,1,1,1,0,1,0,1,46.6666666666667,0,0,1,0,0,0,1,0,1,0,0,1,1,1,1,57.1428571428571,1,1,1,0,1,0,0,57.2023809523809,IN,New Delhi,77.225,28.6353,SAS,8S,South Asia,SAS,8S,South Asia,LMC,XN,Lower middle income,IBD,XF,IBRD,India,1,1,0,0,1,1,1324509589
Ireland,IRL,2016,79.1666666666667,1,1,1,0.5,1,0,1,1,1,1,1,0,NA,NA,NA,NA,NA,NA,NA,NA,NA,66.6666666666667,1,1,1,0,1,1,0,1,1,0,0,1,1,1,0,71.4285714285714,1,1,1,1,1,0,0,NA,IE,Dublin,-6.26749,53.3441,ECS,Z7,Europe & Central Asia,NA,NA,NA,HIC,XD,High income,LNX,XX,Not classified,Ireland,1,1,1,1,0,0,4755335
"Iran, Islamic Rep.",IRN,2016,37.5,0.5,0,0.5,0.5,1,0,0.5,0,0,0.5,1,0,50,1,1,0,1,0,1,0,0,53.3333333333333,0,0,0,0,1,1,0,1,1,0,0,1,1,1,1,28.5714285714286,0,0,0,1,1,0,0,42.3511904761905,IR,Tehran,51.4447,35.6878,MEA,ZQ,Middle East & North Africa,MNA,XQ,Middle East & North Africa (excluding high income),UMC,XT,Upper middle income,IBD,XF,IBRD,NA,0,0,1,1,1,1,79564016
Iraq,IRQ,2016,37.5,0,0.5,0.5,0.5,1,0,0,0.5,1,0.5,0,0,0,0,0,0,0,0,0,0,0,40,0,0,0,0,0,1,1,1,1,0,0,1,1,0,0,0,0,0,0,0,0,0,0,19.375,IQ,Baghdad,44.394,33.3302,MEA,ZQ,Middle East & North Africa,MNA,XQ,Middle East & North Africa (excluding high income),UMC,XT,Upper middle income,IBD,XF,IBRD,Iraq,0,0,0,0,0,0,36610632
Iceland,ISL,2016,91.6666666666667,1,1,0.5,1,1,1,1,0.5,1,1,1,1,NA,NA,NA,NA,NA,NA,NA,NA,NA,63.3333333333333,1,1,0.5,0,1,1,0,1,1,0,0,1,1,1,0,57.1428571428571,1,0,1,1,1,0,0,NA,IS,Reykjavik,-21.8952,64.1353,ECS,Z7,Europe & Central Asia,NA,NA,NA,HIC,XD,High income,LNX,XX,Not classified,Iceland,0,1,1,1,0,0,335439
Israel,ISR,2016,87.5,1,1,1,0.5,1,0,1,1,1,1,1,1,NA,NA,NA,NA,NA,NA,NA,NA,NA,63.3333333333333,1,1,1,0,0.5,1,0,1,1,0,0,1,1,1,0,71.4285714285714,1,1,1,1,1,0,0,NA,IL,NA,35.2035,31.7717,MEA,ZQ,Middle East & North Africa,NA,NA,NA,HIC,XD,High income,LNX,XX,Not classified,Israel,1,1,1,0,0,0,8546000
Italy,ITA,2016,91.6666666666667,1,1,1,1,1,0,1,1,1,1,1,1,NA,NA,NA,NA,NA,NA,NA,NA,NA,66.6666666666667,1,1,1,0,1,1,0,1,1,0,0,1,1,1,0,71.4285714285714,1,1,1,1,1,0,0,NA,IT,Rome,12.4823,41.8955,ECS,Z7,Europe & Central Asia,NA,NA,NA,HIC,XD,High income,LNX,XX,Not classified,Italy,1,1,1,1,0,0,60627498
Jamaica,JAM,2016,41.6666666666667,0.5,0.5,0.5,0,1,0,1,0,1,0.5,0,0,50,1,1,0,1,0,1,0,0,53.3333333333333,0,0,0,0,1,0,1,1,1,0,0,1,1,1,1,57.1428571428571,1,0,0,1,1,0,1,50.5357142857143,JM,Kingston,-76.792,17.9927,LCN,ZJ,Latin America & Caribbean ,LAC,XJ,Latin America & Caribbean (excluding high income),UMC,XT,Upper middle income,IBD,XF,IBRD,Jamaica,0,0,1,1,1,1,2906238
Jordan,JOR,2016,25,0,0,1,0.5,0,0,0,0.5,0,1,0,0,62.5,1,1,0,1,0,1,1,0,46.6666666666667,0,0,0,0,0,1,1,1,1,0,0,1,1,0,1,57.1428571428571,0,1,1,1,1,0,0,47.8273809523809,JO,Amman,35.9263,31.9497,MEA,ZQ,Middle East & North Africa,MNA,XQ,Middle East & North Africa (excluding high income),UMC,XT,Upper middle income,IBD,XF,IBRD,Jordan,0,0,0,0,1,1,9551467
Japan,JPN,2016,70.8333333333333,0.5,1,1,0.5,1,0,1,0.5,1,1,1,0,NA,NA,NA,NA,NA,NA,NA,NA,NA,60,0,1,1,0,1,1,0,1,1,0,0,1,1,1,0,42.8571428571429,0,0,1,1,1,0,0,NA,JP,Tokyo,139.77,35.67,EAS,Z4,East Asia & Pacific,NA,NA,NA,HIC,XD,High income,LNX,XX,Not classified,Japan,1,1,1,1,0,0,126994511
Kazakhstan,KAZ,2016,75,0.5,1,1,1,1,0,0.5,0,1,1,1,1,62.5,1,1,0,1,0,1,1,0,80,1,1,1,0,1,1,1,1,1,0,0,1,1,1,1,57.1428571428571,1,0,1,1,1,0,0,68.6607142857143,KZ,Astana,71.4382,51.1879,ECS,Z7,Europe & Central Asia,ECA,7E,Europe & Central Asia (excluding high income),UMC,XT,Upper middle income,IBD,XF,IBRD,Kazakhstan,1,1,1,1,1,1,17794055
Kenya,KEN,2016,41.6666666666667,1,0.5,0.5,0.5,0,0,1,0,1,0.5,0,0,37.5,1,0,1,0,0,0,1,0,43.3333333333333,0,1,0.5,0,0,0,1,0,1,0,0,1,1,0,1,14.2857142857143,0,1,0,0,0,0,0,34.1964285714286,KE,Nairobi,36.8126,-1.27975,SSF,ZG,Sub-Saharan Africa ,SSA,ZF,Sub-Saharan Africa (excluding high income),LMC,XN,Lower middle income,IDB,XH,Blend,Kenya,1,0,0,0,1,1,49051686
Kyrgyz Republic,KGZ,2016,87.5,0.5,1,1,1,1,1,0.5,0.5,1,1,1,1,25,1,0,0,1,0,0,0,0,73.3333333333333,1,1,1,0,1,1,0,1,1,0,0,1,1,1,1,57.1428571428571,1,1,0,1,1,0,0,60.7440476190476,KG,Bishkek,74.6057,42.8851,ECS,Z7,Europe & Central Asia,ECA,7E,Europe & Central Asia (excluding high income),LMC,XN,Lower middle income,IDX,XI,IDA,Kyrgyz Republic,1,1,1,1,1,1,6079500
Cambodia,KHM,2016,37.5,0.5,0,0.5,0,1,0,0,0,1,0.5,0,1,62.5,1,1,1,1,0,0,0,1,53.3333333333333,0,1,0,0,0,1,1,1,1,0,0,1,1,0,1,42.8571428571429,0,1,0,1,1,0,0,49.0476190476191,KH,Phnom Penh,104.874,11.5556,EAS,Z4,East Asia & Pacific,EAP,4E,East Asia & Pacific (excluding high income),LMC,XN,Lower middle income,IDX,XI,IDA,NA,0,0,0,0,1,1,15766293
Kiribati,KIR,2016,20.8333333333333,0.5,0.5,0.5,0,0,0,0.5,0,0,0.5,0,0,12.5,1,0,0,0,0,0,0,0,20,0,0,0,0,0,0,1,0,1,0,0,1,0,0,0,0,0,0,0,0,0,0,0,13.3333333333333,KI,Tarawa,172.979,1.32905,EAS,Z4,East Asia & Pacific,EAP,4E,East Asia & Pacific (excluding high income),LMC,XN,Lower middle income,IDX,XI,IDA,Kiribati,0,0,0,0,0,0,112524
St. Kitts and Nevis,KNA,2016,33.3333333333333,0.5,0.5,0.5,0,0,0,0,0,1,0.5,1,0,12.5,1,0,0,0,0,0,0,0,13.3333333333333,0,0,0,0,0,0,0,0,1,0,0,1,0,0,0,0,0,0,0,0,0,0,0,14.7916666666667,KN,Basseterre,-62.7309,17.3,LCN,ZJ,Latin America & Caribbean ,NA,NA,NA,HIC,XD,High income,IBD,XF,IBRD,NA,NA,NA,NA,NA,0,0,51625
"Korea, Rep.",KOR,2016,70.8333333333333,1,0.5,1,0.5,1,0,0,0.5,1,1,1,1,NA,NA,NA,NA,NA,NA,NA,NA,NA,60,0,1,1,0,1,1,0,1,1,0,0,1,1,1,0,57.1428571428571,1,0,1,1,1,0,0,NA,KR,Seoul,126.957,37.5323,EAS,Z4,East Asia & Pacific,NA,NA,NA,HIC,XD,High income,LNX,XX,Not classified,NA,1,1,1,1,0,0,51217803
Kuwait,KWT,2016,37.5,0.5,0.5,0.5,0,0,0,0.5,0,1,0.5,1,0,NA,NA,NA,NA,NA,NA,NA,NA,NA,46.6666666666667,0,0,1,0,1,1,0,1,1,0,0,1,1,0,0,14.2857142857143,0,0,0,1,0,0,0,NA,KW,Kuwait City,47.9824,29.3721,MEA,ZQ,Middle East & North Africa,NA,NA,NA,HIC,XD,High income,LNX,XX,Not classified,NA,1,1,1,1,0,0,3956873
Lao PDR,LAO,2016,8.33333333333333,0.5,0,0,0.5,0,0,0,0,0,0,0,0,37.5,1,1,1,0,0,0,0,0,33.3333333333333,0,0,0,0,0,1,0,0,1,0,0,1,1,0,1,14.2857142857143,0,1,0,0,0,0,0,23.3630952380952,LA,Vientiane,102.177,18.5826,EAS,Z4,East Asia & Pacific,EAP,4E,East Asia & Pacific (excluding high income),LMC,XN,Lower middle income,IDX,XI,IDA,NA,0,0,0,0,1,1,6845846
Lebanon,LBN,2016,25,0.5,0,0,0.5,0,0,0,0.5,0,0.5,1,0,12.5,0,1,0,0,0,0,0,0,40,0,0,0,0,0,1,1,0,1,0,0,1,1,0,1,14.2857142857143,0,0,0,0,1,0,0,22.9464285714286,LB,Beirut,35.5134,33.8872,MEA,ZQ,Middle East & North Africa,MNA,XQ,Middle East & North Africa (excluding high income),UMC,XT,Upper middle income,IBD,XF,IBRD,Lebanon,0,0,0,0,1,1,6711121
Liberia,LBR,2016,25,0,0,0.5,0,1,0,0.5,0.5,0,0.5,0,0,25,1,0,1,0,0,0,0,0,50,0.5,1,0,0,0,0,1,1,1,0,0,1,1,0,1,0,0,0,0,0,0,0,0,25,LR,Monrovia,-10.7957,6.30039,SSF,ZG,Sub-Saharan Africa ,SSA,ZF,Sub-Saharan Africa (excluding high income),LIC,XM,Low income,IDX,XI,IDA,Liberia,0,0,0,0,1,1,4586788
Libya,LBY,2016,20.8333333333333,0.5,0,0.5,0,1,0,0,0,0,0.5,0,0,12.5,1,0,0,0,0,0,0,0,6.66666666666667,0,0,0,0,0,0,0,0,0,0,0,1,0,0,0,0,0,0,0,0,0,0,0,10,LY,Tripoli,13.1072,32.8578,MEA,ZQ,Middle East & North Africa,MNA,XQ,Middle East & North Africa (excluding high income),UMC,XT,Upper middle income,IBD,XF,IBRD,NA,0,0,NA,NA,0,0,6492164
St. Lucia,LCA,2016,33.3333333333333,0,0.5,0.5,0.5,0,0,0,0,1,0.5,1,0,37.5,1,1,0,0,0,1,0,0,50,0,1,0.5,0,1,0,0,1,1,0,0,1,1,0,1,28.5714285714286,0,1,0,1,0,0,0,37.3511904761905,LC,Castries,-60.9832,14,LCN,ZJ,Latin America & Caribbean ,LAC,XJ,Latin America & Caribbean (excluding high income),UMC,XT,Upper middle income,IDB,XH,Blend,St. Lucia,0,1,1,1,1,1,180024
Sri Lanka,LKA,2016,45.8333333333333,0.5,0.5,1,0.5,1,0,0,0,0,1,1,0,62.5,1,1,1,1,0,1,0,0,60,0.5,0,1,0,0.5,0,1,1,1,0,0,1,1,1,1,71.4285714285714,1,1,0,1,1,0,1,59.9404761904762,LK,Colombo,79.8528,6.92148,SAS,8S,South Asia,SAS,8S,South Asia,UMC,XT,Upper middle income,IBD,XF,IBRD,Sri Lanka,1,1,1,0,1,1,21203000
Lesotho,LSO,2016,33.3333333333333,0.5,0,0.5,0,1,0,0,0.5,1,0.5,0,0,37.5,1,1,0,0,1,0,0,0,40,0,1,0,0,0,0,1,0,1,0,0,1,1,0,1,28.5714285714286,0,1,0,0,1,0,0,34.8511904761905,LS,Maseru,27.7167,-29.5208,SSF,ZG,Sub-Saharan Africa ,SSA,ZF,Sub-Saharan Africa (excluding high income),LMC,XN,Lower middle income,IDX,XI,IDA,Lesotho,0,0,0,0,1,1,2075001
Lithuania,LTU,2016,100,1,1,1,1,1,1,1,1,1,1,1,1,NA,NA,NA,NA,NA,NA,NA,NA,NA,66.6666666666667,1,1,1,0,1,1,0,1,1,0,0,1,1,1,0,57.1428571428571,1,0,1,1,1,0,0,NA,LT,Vilnius,25.2799,54.6896,ECS,Z7,Europe & Central Asia,NA,NA,NA,HIC,XD,High income,LNX,XX,Not classified,Lithuania,1,1,1,1,0,0,2868231
Luxembourg,LUX,2016,83.3333333333333,1,1,1,1,1,0,1,1,1,1,1,0,NA,NA,NA,NA,NA,NA,NA,NA,NA,63.3333333333333,1,1,0.5,0,1,1,0,1,1,0,0,1,1,1,0,57.1428571428571,1,0,1,1,1,0,0,NA,LU,Luxembourg,6.1296,49.61,ECS,Z7,Europe & Central Asia,NA,NA,NA,HIC,XD,High income,LNX,XX,Not classified,Luxembourg,0,1,1,1,0,0,582014
Latvia,LVA,2016,91.6666666666667,1,1,1,1,1,1,1,0,1,1,1,1,NA,NA,NA,NA,NA,NA,NA,NA,NA,66.6666666666667,1,1,1,0,1,1,0,1,1,0,0,1,1,1,0,85.7142857142857,1,1,1,1,1,0,1,NA,LV,Riga,24.1048,56.9465,ECS,Z7,Europe & Central Asia,NA,NA,NA,HIC,XD,High income,LNX,XX,Not classified,Latvia,1,1,1,1,0,0,1959537
Morocco,MAR,2016,33.3333333333333,0.5,0.5,0.5,0.5,0,0,0,0,1,1,0,0,37.5,1,0,0,1,0,0,0,1,53.3333333333333,0,0,0,0,0,1,1,1,1,0,0,1,1,1,1,57.1428571428571,0,1,1,1,1,0,0,45.3273809523809,MA,Rabat,-6.8704,33.9905,MEA,ZQ,Middle East & North Africa,MNA,XQ,Middle East & North Africa (excluding high income),LMC,XN,Lower middle income,IBD,XF,IBRD,Morocco,0,0,0,0,1,1,35126296
Moldova,MDA,2016,87.5,0.5,1,1,1,1,1,0.5,0.5,1,1,1,1,50,1,1,0,1,0,1,0,0,73.3333333333333,1,1,1,0,1,1,0,1,1,0,0,1,1,1,1,57.1428571428571,1,0,1,1,1,0,0,66.9940476190476,MD,Chisinau,28.8497,47.0167,ECS,Z7,Europe & Central Asia,ECA,7E,Europe & Central Asia (excluding high income),LMC,XN,Lower middle income,IDB,XH,Blend,Moldova,1,1,1,1,1,1,2802170
Madagascar,MDG,2016,29.1666666666667,0,0,0,0.5,1,0,1,0.5,0,0.5,0,0,12.5,0,0,0,1,0,0,0,0,36.6666666666667,0,0,0.5,0,0,0,1,0,1,0,0,1,1,0,1,0,0,0,0,0,0,0,0,19.5833333333333,MG,Antananarivo,45.7167,-20.4667,SSF,ZG,Sub-Saharan Africa ,SSA,ZF,Sub-Saharan Africa (excluding high income),LIC,XM,Low income,IDX,XI,IDA,Madagascar,1,0,0,0,1,1,24894380
Maldives,MDV,2016,41.6666666666667,0.5,0,0,0.5,1,0,0.5,0,1,0.5,1,0,12.5,1,0,0,0,0,0,0,0,40,0,0,1,0,1,0,1,0,1,0,0,1,0,0,1,14.2857142857143,0,1,0,0,0,0,0,27.1130952380952,MV,Male,73.5109,4.1742,SAS,8S,South Asia,SAS,8S,South Asia,UMC,XT,Upper middle income,IDX,XI,IDA,Maldives,1,1,1,1,1,1,475513
Mexico,MEX,2016,58.3333333333333,1,0.5,1,0.5,0,0,0,0,1,1,1,1,62.5,1,1,1,1,0,1,0,0,76.6666666666667,1,1,1,0,0.5,1,1,1,1,0,0,1,1,1,1,85.7142857142857,1,1,1,1,1,0,1,70.8035714285714,MX,Mexico City,-99.1276,19.427,LCN,ZJ,Latin America & Caribbean ,LAC,XJ,Latin America & Caribbean (excluding high income),UMC,XT,Upper middle income,IBD,XF,IBRD,Mexico,1,1,1,0,1,1,123333376
Marshall Islands,MHL,2016,4.16666666666667,0,0,0,0,0,0,0,0,0,0.5,0,0,12.5,1,0,0,0,0,0,0,0,26.6666666666667,0,0,0,0,0,0,1,0,1,0,0,1,1,0,0,0,0,0,0,0,0,0,0,10.8333333333333,MH,Majuro,171.135,7.11046,EAS,Z4,East Asia & Pacific,EAP,4E,East Asia & Pacific (excluding high income),UMC,XT,Upper middle income,IDX,XI,IDA,NA,0,0,NA,NA,0,0,57735
North Macedonia,MKD,2016,54.1666666666667,0.5,0,1,1,1,0,0,0,0,1,1,1,37.5,0,1,0,1,0,1,0,0,73.3333333333333,1,1,1,0,1,1,0,1,1,0,0,1,1,1,1,71.4285714285714,1,0,1,1,1,1,0,59.1071428571429,MK,Skopje,21.4361,42.0024,ECS,Z7,Europe & Central Asia,ECA,7E,Europe & Central Asia (excluding high income),UMC,XT,Upper middle income,IBD,XF,IBRD,North Macedonia,1,1,1,1,1,1,2080745
Mali,MLI,2016,16.6666666666667,0,0,0.5,0,1,0,0,0,0,0.5,0,0,37.5,1,0,0,1,0,0,1,0,36.6666666666667,0,0,0.5,0,0,0,1,1,0,0,0,1,1,0,1,14.2857142857143,0,1,0,0,0,0,0,26.2797619047619,ML,Bamako,-7.50034,13.5667,SSF,ZG,Sub-Saharan Africa ,SSA,ZF,Sub-Saharan Africa (excluding high income),LIC,XM,Low income,IDX,XI,IDA,Mali,1,0,0,0,1,1,17965429
Malta,MLT,2016,75,0.5,1,1,0.5,1,0,1,1,1,1,1,0,NA,NA,NA,NA,NA,NA,NA,NA,NA,56.6666666666667,1,0,0.5,0,1,1,0,1,1,0,0,1,1,1,0,85.7142857142857,1,1,1,1,1,0,1,NA,MT,Valletta,14.5189,35.9042,MEA,ZQ,Middle East & North Africa,NA,NA,NA,HIC,XD,High income,LNX,XX,Not classified,Malta,0,1,1,1,0,0,455356
Myanmar,MMR,2016,29.1666666666667,0,0.5,0,0.5,0,0,0,1,1,0.5,0,0,37.5,1,1,0,1,0,0,0,0,33.3333333333333,0,0,0,0,0,0,1,0,1,0,0,1,1,0,1,42.8571428571429,0,0,1,1,1,0,0,35.7142857142857,MM,Naypyidaw,95.9562,21.914,EAS,Z4,East Asia & Pacific,EAP,4E,East Asia & Pacific (excluding high income),LMC,XN,Lower middle income,IDX,XI,IDA,Myanmar,0,0,0,0,NA,NA,53045226
Montenegro,MNE,2016,37.5,0.5,0,1,0.5,1,0,0,0,0,0.5,1,0,50,1,1,0,1,0,1,0,0,70,1,1,0.5,0,0,1,1,1,1,0,0,1,1,1,1,71.4285714285714,1,1,0,1,1,1,0,57.2321428571429,ME,Podgorica,19.2595,42.4602,ECS,Z7,Europe & Central Asia,ECA,7E,Europe & Central Asia (excluding high income),UMC,XT,Upper middle income,IBD,XF,IBRD,Montenegro,0,1,0,0,1,1,622303
Mongolia,MNG,2016,50,0.5,0.5,0.5,0.5,1,0,0.5,0,1,0.5,1,0,50,1,1,0,1,0,1,0,0,73.3333333333333,1,1,0,0,1,1,1,1,1,0,0,1,1,1,1,71.4285714285714,1,1,1,1,0,1,0,61.1904761904762,MN,Ulaanbaatar,106.937,47.9129,EAS,Z4,East Asia & Pacific,EAP,4E,East Asia & Pacific (excluding high income),LMC,XN,Lower middle income,IDB,XH,Blend,Mongolia,0,0,1,1,1,1,3056359
Mozambique,MOZ,2016,33.3333333333333,0.5,0.5,0.5,0,1,0,0,0,1,0.5,0,0,37.5,1,1,1,0,0,0,0,0,40,0,1,0,0,0,0,1,0,1,0,0,1,1,0,1,42.8571428571429,1,1,0,0,1,0,0,38.422619047619,MZ,Maputo,32.5713,-25.9664,SSF,ZG,Sub-Saharan Africa ,SSA,ZF,Sub-Saharan Africa (excluding high income),LIC,XM,Low income,IDX,XI,IDA,Mozambique,0,0,0,0,1,1,27829942
Mauritania,MRT,2016,29.1666666666667,0.5,0,1,0.5,1,0,0,0,0,0.5,0,0,25,1,0,0,0,0,0,1,0,33.3333333333333,0,0,0,0,0,0,1,0,1,0,0,1,1,0,1,0,0,0,0,0,0,0,0,21.875,MR,Nouakchott,-15.9824,18.2367,SSF,ZG,Sub-Saharan Africa ,SSA,ZF,Sub-Saharan Africa (excluding high income),LMC,XN,Lower middle income,IDX,XI,IDA,Mauritania,0,0,0,0,1,1,4163534
Mauritius,MUS,2016,75,0.5,0.5,1,0.5,1,1,1,0.5,1,1,1,0,62.5,1,1,1,1,0,1,0,0,60,0,1,1,0,1,0,0,1,1,0,0,1,1,1,1,57.1428571428571,0,1,1,1,1,0,0,63.6607142857143,MU,Port Louis,57.4977,-20.1605,SSF,ZG,Sub-Saharan Africa ,SSA,ZF,Sub-Saharan Africa (excluding high income),UMC,XT,Upper middle income,IBD,XF,IBRD,Mauritius,1,1,1,1,1,1,1263473
Malawi,MWI,2016,20.8333333333333,1,0.5,0.5,0,0,0,0,0,0,0.5,0,0,50,1,1,0,0,0,0,1,1,43.3333333333333,0,1,0.5,0,0,0,1,0,1,0,0,1,1,0,1,28.5714285714286,0,1,0,0,1,0,0,35.6845238095238,MW,Lilongwe,33.7703,-13.9899,SSF,ZG,Sub-Saharan Africa ,SSA,ZF,Sub-Saharan Africa (excluding high income),LIC,XM,Low income,IDX,XI,IDA,Malawi,1,0,0,0,1,1,17205289
Malaysia,MYS,2016,54.1666666666667,0.5,0.5,1,0.5,1,0,0,0,1,1,1,0,37.5,1,0,0,1,0,1,0,0,66.6666666666667,1,0,1,0,1,1,1,1,1,0,0,1,1,1,0,57.1428571428571,1,0,1,1,1,0,0,53.8690476190476,MY,Kuala Lumpur,101.684,3.12433,EAS,Z4,East Asia & Pacific,EAP,4E,East Asia & Pacific (excluding high income),UMC,XT,Upper middle income,IBD,XF,IBRD,Malaysia,1,1,1,1,0,0,30684804
Namibia,NAM,2016,29.1666666666667,0.5,0.5,0.5,0.5,0,0,0,0,1,0.5,0,0,37.5,1,1,0,0,0,1,0,0,40,0,1,0,0,0,0,1,1,1,0,0,1,1,0,0,42.8571428571429,0,1,1,1,0,0,0,37.3809523809524,"NA",Windhoek,17.0931,-22.5648,SSF,ZG,Sub-Saharan Africa ,SSA,ZF,Sub-Saharan Africa (excluding high income),UMC,XT,Upper middle income,IBD,XF,IBRD,Namibia,0,0,0,0,0,0,2358041
Niger,NER,2016,25,0.5,0.5,0.5,0,1,0,0,0,0,0.5,0,0,25,1,0,0,1,0,0,0,0,50,0.5,1,0,0,0,0,1,1,1,0,0,1,1,0,1,42.8571428571429,1,1,0,0,1,0,0,35.7142857142857,NE,Niamey,2.1073,13.514,SSF,ZG,Sub-Saharan Africa ,SSA,ZF,Sub-Saharan Africa (excluding high income),LIC,XM,Low income,IDX,XI,IDA,Niger,0,0,0,0,1,1,20788838
Nigeria,NGA,2016,37.5,1,0.5,1,0.5,0,0,0,0,1,0.5,0,0,50,1,1,0,1,0,0,1,0,60,0,1,0,0,0,1,1,1,1,0,0,1,1,1,1,57.1428571428571,1,1,1,0,1,0,0,51.1607142857143,NG,Abuja,7.48906,9.05804,SSF,ZG,Sub-Saharan Africa ,SSA,ZF,Sub-Saharan Africa (excluding high income),LMC,XN,Lower middle income,IDB,XH,Blend,Nigeria,0,0,0,0,1,1,185960289
Nicaragua,NIC,2016,29.1666666666667,0.5,0.5,0.5,0.5,0,0,0,0,1,0.5,0,0,12.5,0,1,0,0,0,0,0,0,60,0,0,1,0,1,1,1,1,1,0,0,1,1,0,1,14.2857142857143,0,0,0,0,1,0,0,28.9880952380952,NI,Managua,-86.2734,12.1475,LCN,ZJ,Latin America & Caribbean ,LAC,XJ,Latin America & Caribbean (excluding high income),LMC,XN,Lower middle income,IDX,XI,IDA,Nicaragua,1,1,1,1,1,1,6303974
Netherlands,NLD,2016,91.6666666666667,1,1,1,1,1,0,1,1,1,1,1,1,NA,NA,NA,NA,NA,NA,NA,NA,NA,66.6666666666667,1,1,1,0,1,1,0,1,1,0,0,1,1,1,0,57.1428571428571,1,0,1,1,1,0,0,NA,NL,Amsterdam,4.89095,52.3738,ECS,Z7,Europe & Central Asia,NA,NA,NA,HIC,XD,High income,LNX,XX,Not classified,Netherlands,1,1,1,1,0,0,17030314
Norway,NOR,2016,83.3333333333333,1,1,1,1,1,0,1,1,0,1,1,1,NA,NA,NA,NA,NA,NA,NA,NA,NA,63.3333333333333,1,1,1,0,0.5,1,0,1,1,0,0,1,1,1,0,71.4285714285714,1,0,1,1,1,1,0,NA,NO,Oslo,10.7387,59.9138,ECS,Z7,Europe & Central Asia,NA,NA,NA,HIC,XD,High income,LNX,XX,Not classified,Norway,1,1,1,0,0,0,5234519
Nepal,NPL,2016,25,0.5,0,0.5,0.5,0,0,0,0,1,0.5,0,0,62.5,1,1,1,1,0,0,1,0,46.6666666666667,0,1,0,0,0,1,1,0,1,0,0,1,1,0,1,42.8571428571429,0,1,0,1,0,1,0,44.2559523809524,NP,Kathmandu,85.3157,27.6939,SAS,8S,South Asia,SAS,8S,South Asia,LIC,XM,Low income,IDX,XI,IDA,Nepal,0,0,0,0,1,1,27261131
Nauru,NRU,2016,8.33333333333333,0,0,0,0,0,0,0,0,0,0,1,0,12.5,1,0,0,0,0,0,0,0,20,0,0,0,0,0,0,1,0,1,0,0,1,0,0,0,0,0,0,0,0,0,0,0,10.2083333333333,NR,Yaren District,166.920867,-0.5477,EAS,Z4,East Asia & Pacific,EAP,4E,East Asia & Pacific (excluding high income),UMC,XT,Upper middle income,IBD,XF,IBRD,NA,0,0,NA,NA,0,0,13049
New Zealand,NZL,2016,54.1666666666667,1,1,1,0.5,1,0,0,0,0,0,1,1,NA,NA,NA,NA,NA,NA,NA,NA,NA,56.6666666666667,0,1,1,0,0.5,1,0,1,1,0,0,1,1,1,0,85.7142857142857,1,1,1,1,1,0,1,NA,NZ,Wellington,174.776,-41.2865,EAS,Z4,East Asia & Pacific,NA,NA,NA,HIC,XD,High income,LNX,XX,Not classified,NA,1,1,1,0,0,0,4693200
Oman,OMN,2016,33.3333333333333,0.5,0.5,0.5,0,1,0,0,0,1,0.5,0,0,NA,NA,NA,NA,NA,NA,NA,NA,NA,36.6666666666667,0,0,1,0,0.5,1,0,0,1,0,0,1,1,0,0,42.8571428571429,0,0,1,1,0,0,1,NA,OM,Muscat,58.5874,23.6105,MEA,ZQ,Middle East & North Africa,NA,NA,NA,HIC,XD,High income,LNX,XX,Not classified,NA,1,1,1,0,0,0,4479219
Pakistan,PAK,2016,33.3333333333333,0.5,0.5,1,0.5,0,0,0,0,1,0.5,0,0,37.5,0,1,0,1,0,1,0,0,46.6666666666667,1,0,0,0,0,1,0,1,1,0,0,1,1,0,1,28.5714285714286,0,1,0,0,1,0,0,36.5178571428571,PK,Islamabad,72.8,30.5167,SAS,8S,South Asia,SAS,8S,South Asia,LMC,XN,Lower middle income,IDB,XH,Blend,Pakistan,0,0,0,0,1,1,203627284
Panama,PAN,2016,25,0.5,0.5,0.5,0,0,0,0,0,1,0.5,0,0,50,1,1,0,1,0,1,0,0,46.6666666666667,1,0,0,0,1,0,1,1,1,0,0,1,1,0,0,42.8571428571429,1,0,0,1,1,0,0,41.1309523809524,PA,Panama City,-79.5188,8.99427,LCN,ZJ,Latin America & Caribbean ,NA,NA,NA,HIC,XD,High income,IBD,XF,IBRD,Panama,0,0,1,1,NA,NA,4037078
Peru,PER,2016,33.3333333333333,0.5,0.5,1,0.5,0,0,0.5,0,0,1,0,0,75,1,1,1,1,0,1,0,1,63.3333333333333,1,0,0.5,0,0,1,1,1,1,0,0,1,1,1,1,57.1428571428571,1,1,1,1,0,0,0,57.2023809523809,PE,Lima,-77.0465,-12.0931,LCN,ZJ,Latin America & Caribbean ,LAC,XJ,Latin America & Caribbean (excluding high income),UMC,XT,Upper middle income,IBD,XF,IBRD,Peru,1,0,0,0,1,1,30926032
Philippines,PHL,2016,45.8333333333333,0.5,0,0.5,0.5,1,0,0,0,1,1,1,0,75,1,1,1,1,0,1,0,1,76.6666666666667,1,1,0.5,0,1,1,1,1,1,0,0,1,1,1,1,71.4285714285714,1,1,1,1,1,0,0,67.2321428571429,PH,Manila,121.035,14.5515,EAS,Z4,East Asia & Pacific,EAP,4E,East Asia & Pacific (excluding high income),LMC,XN,Lower middle income,IBD,XF,IBRD,Philippines,1,0,1,1,1,1,103663927
Palau,PLW,2016,25,0.5,0,0,0.5,0,0,0,0.5,0,0.5,1,0,25,1,1,0,0,0,0,0,0,26.6666666666667,0,0,0,0,0,0,1,0,1,0,0,1,1,0,0,0,0,0,0,0,0,0,0,19.1666666666667,PW,Koror,134.479,7.34194,EAS,Z4,East Asia & Pacific,NA,NA,NA,HIC,XD,High income,IBD,XF,IBRD,NA,0,0,NA,NA,0,0,17725
Papua New Guinea,PNG,2016,16.6666666666667,0.5,0,0,0,0,0,0,0,1,0.5,0,0,12.5,1,0,0,0,0,0,0,0,26.6666666666667,0,0,0,0,0,0,1,0,1,0,0,1,0,0,1,0,0,0,0,0,0,0,0,13.9583333333333,PG,Port Moresby,147.194,-9.47357,EAS,Z4,East Asia & Pacific,EAP,4E,East Asia & Pacific (excluding high income),LMC,XN,Lower middle income,IDB,XH,Blend,Papua New Guinea,0,0,NA,NA,1,1,8271760
Poland,POL,2016,91.6666666666667,1,1,1,1,1,0,1,1,1,1,1,1,50,1,1,0,1,0,1,0,0,66.6666666666667,1,1,1,0,1,1,0,1,1,0,0,1,1,1,0,71.4285714285714,1,0,1,1,1,0,1,69.9404761904762,PL,Warsaw,21.02,52.26,ECS,Z7,Europe & Central Asia,NA,NA,NA,HIC,XD,High income,IBD,XF,IBRD,Poland,1,1,1,1,0,0,37970087
Portugal,PRT,2016,91.6666666666667,1,1,1,1,1,0,1,1,1,1,1,1,NA,NA,NA,NA,NA,NA,NA,NA,NA,66.6666666666667,1,1,1,0,1,1,0,1,1,0,0,1,1,1,0,100,1,1,1,1,1,1,1,NA,PT,Lisbon,-9.13552,38.7072,ECS,Z7,Europe & Central Asia,NA,NA,NA,HIC,XD,High income,LNX,XX,Not classified,Portugal,1,1,1,1,0,0,10325452
Paraguay,PRY,2016,41.6666666666667,0.5,0,0.5,0.5,1,0,1,0,1,0.5,0,0,62.5,1,1,1,1,0,1,0,0,63.3333333333333,1,0,0,0,0.5,1,1,1,1,0,0,1,1,1,1,14.2857142857143,0,1,0,0,0,0,0,45.4464285714286,PY,Asuncion,-57.6362,-25.3005,LCN,ZJ,Latin America & Caribbean ,LAC,XJ,Latin America & Caribbean (excluding high income),UMC,XT,Upper middle income,IBD,XF,IBRD,Paraguay,0,0,0,1,1,1,6777872
West Bank and Gaza,PSE,2016,54.1666666666667,0,0,1,0.5,1,0,1,0,1,1,0,1,75,1,1,1,1,0,1,0,1,46.6666666666667,0.5,1,0,0,0.5,0,0,1,1,0,0,1,1,1,0,28.5714285714286,1,0,0,0,1,0,0,51.1011904761905,PS,NA,NA,NA,MEA,ZQ,Middle East & North Africa,MNA,XQ,Middle East & North Africa (excluding high income),LMC,XN,Lower middle income,LNX,XX,Not classified,West Bank and Gaza,NA,NA,1,0,0,0,4367088
Qatar,QAT,2016,37.5,0.5,0.5,0.5,0.5,0,0,0,0,1,0.5,1,0,NA,NA,NA,NA,NA,NA,NA,NA,NA,53.3333333333333,0,0,1,0,1,1,0,1,1,0,0,1,1,1,0,42.8571428571429,1,0,0,1,1,0,0,NA,QA,Doha,51.5082,25.2948,MEA,ZQ,Middle East & North Africa,NA,NA,NA,HIC,XD,High income,LNX,XX,Not classified,NA,1,1,1,1,0,0,2654374
Romania,ROU,2016,66.6666666666667,0.5,0,1,1,0,1,1,0.5,1,1,1,0,50,1,1,0,1,0,1,0,0,80,1,1,1,0,1,1,1,1,1,0,0,1,1,1,1,85.7142857142857,1,1,1,1,1,1,0,70.5952380952381,RO,Bucharest,26.0979,44.4479,ECS,Z7,Europe & Central Asia,ECA,7E,Europe & Central Asia (excluding high income),UMC,XT,Upper middle income,IBD,XF,IBRD,Romania,1,1,1,1,NA,NA,19702468
Russian Federation,RUS,2016,79.1666666666667,0.5,0.5,0.5,1,1,0,1,1,1,1,1,1,50,1,1,0,1,0,1,0,0,80,1,1,1,0,1,1,1,1,1,0,0,1,1,1,1,42.8571428571429,1,1,0,0,1,0,0,63.0059523809524,RU,Moscow,37.6176,55.7558,ECS,Z7,Europe & Central Asia,ECA,7E,Europe & Central Asia (excluding high income),UMC,XT,Upper middle income,IBD,XF,IBRD,Russian Federation,1,1,1,1,NA,NA,144342396
Rwanda,RWA,2016,37.5,1,0.5,1,0.5,0,0,1,0,0,0.5,0,0,50,1,0,1,1,1,0,0,0,43.3333333333333,0.5,0,0,0,0,0,1,0,1,0,0,1,1,1,1,71.4285714285714,1,1,1,0,1,1,0,50.5654761904762,RW,Kigali,30.0587,-1.95325,SSF,ZG,Sub-Saharan Africa ,SSA,ZF,Sub-Saharan Africa (excluding high income),LIC,XM,Low income,IDX,XI,IDA,Rwanda,0,0,0,0,1,1,11668818
Saudi Arabia,SAU,2016,29.1666666666667,1,0.5,0.5,0,1,0,0,0,0,0.5,0,0,NA,NA,NA,NA,NA,NA,NA,NA,NA,33.3333333333333,0,0,0,0,0,0,0,1,1,0,0,1,1,1,0,71.4285714285714,1,0,1,1,1,0,1,NA,SA,Riyadh,46.6977,24.6748,MEA,ZQ,Middle East & North Africa,NA,NA,NA,HIC,XD,High income,LNX,XX,Not classified,NA,0,0,0,0,0,0,32442572
Sudan,SDN,2016,16.6666666666667,0,0,0,0.5,0,0,0,0,1,0.5,0,0,12.5,1,0,0,0,0,0,0,0,26.6666666666667,0,0,0,0,0,0,1,0,0,0,0,1,1,0,1,0,0,0,0,0,0,0,0,13.9583333333333,SD,Khartoum,32.5363,15.5932,SSF,ZG,Sub-Saharan Africa ,SSA,ZF,Sub-Saharan Africa (excluding high income),LMC,XN,Lower middle income,IDX,XI,IDA,Sudan,0,0,0,0,NA,NA,39847440
Senegal,SEN,2016,29.1666666666667,0.5,0,0.5,0.5,1,0,0,0.5,0,0.5,0,0,50,1,1,0,1,1,0,0,0,36.6666666666667,0,0,0.5,0,0,0,1,0,1,0,0,1,1,0,1,71.4285714285714,1,1,1,1,1,0,0,46.8154761904762,SN,Dakar,-17.4734,14.7247,SSF,ZG,Sub-Saharan Africa ,SSA,ZF,Sub-Saharan Africa (excluding high income),LMC,XN,Lower middle income,IDX,XI,IDA,Senegal,1,0,0,0,1,1,14993528
Singapore,SGP,2016,62.5,1,0.5,1,0.5,1,0,0.5,1,0,1,1,0,NA,NA,NA,NA,NA,NA,NA,NA,NA,60,0,1,1,0,1,1,0,1,1,0,0,1,1,1,0,57.1428571428571,1,0,1,1,1,0,0,NA,SG,Singapore,103.85,1.28941,EAS,Z4,East Asia & Pacific,NA,NA,NA,HIC,XD,High income,LNX,XX,Not classified,NA,1,1,1,1,0,0,5607283
Solomon Islands,SLB,2016,25,0.5,0,0.5,0.5,0,0,0,0,1,0.5,0,0,25,1,0,0,1,0,0,0,0,20,0,0,0,0,0,0,1,0,0,0,0,1,0,0,1,14.2857142857143,0,0,0,1,0,0,0,21.0714285714286,SB,Honiara,159.949,-9.42676,EAS,Z4,East Asia & Pacific,EAP,4E,East Asia & Pacific (excluding high income),LMC,XN,Lower middle income,IDX,XI,IDA,Solomon Islands,0,0,0,0,NA,NA,619437
Sierra Leone,SLE,2016,25,0.5,0.5,0.5,0,0,0,0,0,1,0.5,0,0,25,1,0,0,0,0,0,1,0,50,0,1,0.5,0,0,1,1,0,1,0,0,1,1,0,1,14.2857142857143,0,1,0,0,0,0,0,28.5714285714286,SL,Freetown,-13.2134,8.4821,SSF,ZG,Sub-Saharan Africa ,SSA,ZF,Sub-Saharan Africa (excluding high income),LIC,XM,Low income,IDX,XI,IDA,Sierra Leone,1,0,0,0,1,1,7328838
El Salvador,SLV,2016,50,0,0,0.5,0.5,1,0,1,0,1,1,1,0,37.5,1,1,0,1,0,0,0,0,66.6666666666667,1,1,0,0,1,0,1,1,1,0,0,1,1,1,1,28.5714285714286,0,1,0,0,1,0,0,45.6845238095238,SV,San Salvador,-89.2073,13.7034,LCN,ZJ,Latin America & Caribbean ,LAC,XJ,Latin America & Caribbean (excluding high income),LMC,XN,Lower middle income,IBD,XF,IBRD,El Salvador,0,0,1,1,1,1,6356143
San Marino,SMR,2016,50,0.5,0,0.5,1,0,1,1,0.5,0,0.5,1,0,NA,NA,NA,NA,NA,NA,NA,NA,NA,13.3333333333333,0,0,0,0,0,1,0,1,0,0,0,0,0,0,0,0,0,0,0,0,0,0,0,NA,SM,San Marino,12.4486,43.9322,ECS,Z7,Europe & Central Asia,NA,NA,NA,HIC,XD,High income,LNX,XX,Not classified,NA,0,0,NA,NA,0,0,33504
Somalia,SOM,2016,0,0,0,0,0,0,0,0,0,0,0,0,0,0,0,0,0,0,0,0,0,0,13.3333333333333,0,0,0,0,0,0,0,0,0,0,0,1,1,0,0,0,0,0,0,0,0,0,0,3.33333333333333,SO,Mogadishu,45.3254,2.07515,SSF,ZG,Sub-Saharan Africa ,SSA,ZF,Sub-Saharan Africa (excluding high income),LIC,XM,Low income,IDX,XI,IDA,NA,0,0,NA,NA,0,0,14185613
Serbia,SRB,2016,66.6666666666667,0.5,1,1,0.5,1,0,0.5,0,1,0.5,1,1,50,1,1,0,1,0,1,0,0,80,1,1,1,0,1,1,1,1,1,0,0,1,1,1,1,85.7142857142857,1,1,1,1,1,1,0,70.5952380952381,RS,Belgrade,20.4656,44.8024,ECS,Z7,Europe & Central Asia,ECA,7E,Europe & Central Asia (excluding high income),UMC,XT,Upper middle income,IBD,XF,IBRD,Serbia,1,1,1,1,1,1,7058322
South Sudan,SSD,2016,20.8333333333333,0.5,0.5,0,0.5,0,0,0,0,1,0,0,0,12.5,1,0,0,0,0,0,0,0,20,0,0,0,0,0,0,0,0,1,0,0,1,1,0,0,14.2857142857143,0,1,0,0,0,0,0,16.9047619047619,SS,Juba,31.6,4.85,SSF,ZG,Sub-Saharan Africa ,SSA,ZF,Sub-Saharan Africa (excluding high income),LIC,XM,Low income,IDX,XI,IDA,South Sudan,0,0,0,0,0,0,10832512
Sao Tome and Principe,STP,2016,29.1666666666667,0.5,0,0.5,0,1,0,0,0,1,0.5,0,0,25,1,0,0,0,0,0,1,0,26.6666666666667,0,0,0,0,0,0,1,0,1,0,0,1,0,0,1,14.2857142857143,0,1,0,0,0,0,0,23.7797619047619,ST,Sao Tome,6.6071,0.20618,SSF,ZG,Sub-Saharan Africa ,SSA,ZF,Sub-Saharan Africa (excluding high income),LMC,XN,Lower middle income,IDX,XI,IDA,Sao Tome and Principe,0,0,0,0,1,1,203227
Suriname,SUR,2016,50,0.5,0.5,0.5,0.5,1,0,0,0.5,1,0.5,1,0,25,1,1,0,0,0,0,0,0,23.3333333333333,0,0,0,0,0.5,0,0,1,1,0,0,1,0,0,0,28.5714285714286,0,0,0,1,1,0,0,31.7261904761905,SR,Paramaribo,-55.1679,5.8232,LCN,ZJ,Latin America & Caribbean ,LAC,XJ,Latin America & Caribbean (excluding high income),UMC,XT,Upper middle income,IBD,XF,IBRD,Suriname,0,0,1,0,0,0,564888
Slovak Republic,SVK,2016,91.6666666666667,1,1,1,1,1,0,1,1,1,1,1,1,NA,NA,NA,NA,NA,NA,NA,NA,NA,66.6666666666667,1,1,1,0,1,1,0,1,1,0,0,1,1,1,0,71.4285714285714,1,1,1,1,1,0,0,NA,SK,Bratislava,17.1073,48.1484,ECS,Z7,Europe & Central Asia,NA,NA,NA,HIC,XD,High income,LNX,XX,Not classified,Slovak Republic,1,1,1,1,0,0,5430798
Slovenia,SVN,2016,83.3333333333333,1,1,1,1,1,0,1,0,1,1,1,1,NA,NA,NA,NA,NA,NA,NA,NA,NA,56.6666666666667,1,0,0.5,0,1,1,0,1,1,0,0,1,1,1,0,100,1,1,1,1,1,1,1,NA,SI,Ljubljana,14.5044,46.0546,ECS,Z7,Europe & Central Asia,NA,NA,NA,HIC,XD,High income,LNX,XX,Not classified,Slovenia,0,1,1,1,0,0,2065042
Sweden,SWE,2016,91.6666666666667,1,1,1,1,1,0,1,1,1,1,1,1,NA,NA,NA,NA,NA,NA,NA,NA,NA,66.6666666666667,1,1,1,0,1,1,0,1,1,0,0,1,1,1,0,71.4285714285714,1,1,1,1,1,0,0,NA,SE,Stockholm,18.0645,59.3327,ECS,Z7,Europe & Central Asia,NA,NA,NA,HIC,XD,High income,LNX,XX,Not classified,Sweden,1,1,1,1,0,0,9923085
Eswatini,SWZ,2016,33.3333333333333,0.5,0.5,1,0,0,0,0,0.5,1,0.5,0,0,37.5,1,1,0,0,0,0,1,0,33.3333333333333,0,1,0,0,0,0,0,0,1,0,0,1,1,0,1,0,0,0,0,0,0,0,0,26.0416666666667,SZ,Mbabane,31.4659,-26.5225,SSF,ZG,Sub-Saharan Africa ,SSA,ZF,Sub-Saharan Africa (excluding high income),LMC,XN,Lower middle income,IBD,XF,IBRD,Eswatini,0,0,0,0,1,1,1113984
Seychelles,SYC,2016,62.5,0.5,0.5,1,0.5,1,0,0.5,0.5,1,1,1,0,37.5,1,1,0,1,0,0,0,0,43.3333333333333,0,1,0.5,0,0,0,0,1,1,0,0,1,1,1,0,42.8571428571429,1,0,0,1,1,0,0,46.5476190476191,SC,Victoria,55.4466,-4.6309,SSF,ZG,Sub-Saharan Africa ,NA,NA,NA,HIC,XD,High income,IBD,XF,IBRD,Seychelles,0,1,0,0,0,0,94677
Syrian Arab Republic,SYR,2016,20.8333333333333,0,0,0,0,1,0,0,0,1,0.5,0,0,12.5,0,0,0,0,0,1,0,0,6.66666666666667,0,0,0,0,0,0,0,0,0,0,0,1,0,0,0,0,0,0,0,0,0,0,0,10,SY,Damascus,36.3119,33.5146,MEA,ZQ,Middle East & North Africa,MNA,XQ,Middle East & North Africa (excluding high income),LIC,XM,Low income,IDX,XI,IDA,Syrian Arab Republic,0,0,0,0,0,0,17453933
Chad,TCD,2016,16.6666666666667,0.5,0,0,0,0,0,0,0,1,0.5,0,0,12.5,1,0,0,0,0,0,0,0,30,0,0,0.5,0,0,0,1,0,1,0,0,1,1,0,0,0,0,0,0,0,0,0,0,14.7916666666667,TD,N'Djamena,15.0445,12.1048,SSF,ZG,Sub-Saharan Africa ,SSA,ZF,Sub-Saharan Africa (excluding high income),LIC,XM,Low income,IDX,XI,IDA,Chad,1,0,0,0,0,0,14561666
Togo,TGO,2016,25,0,0,1,0.5,1,0,0,0,0,0.5,0,0,37.5,1,1,0,0,0,0,1,0,50,0.5,1,0,0,0,0,1,1,1,0,0,1,1,0,1,28.5714285714286,0,1,1,0,0,0,0,35.2678571428571,TG,Lome,1.2255,6.1228,SSF,ZG,Sub-Saharan Africa ,SSA,ZF,Sub-Saharan Africa (excluding high income),LIC,XM,Low income,IDX,XI,IDA,Togo,0,0,0,0,1,1,7509952
Thailand,THA,2016,66.6666666666667,0.5,0,1,0.5,1,1,1,1,1,1,0,0,62.5,1,1,1,1,0,1,0,0,66.6666666666667,1,0,1,0,1,0,1,1,1,0,0,1,1,1,1,85.7142857142857,1,1,1,1,1,0,1,70.3869047619048,TH,Bangkok,100.521,13.7308,EAS,Z4,East Asia & Pacific,EAP,4E,East Asia & Pacific (excluding high income),UMC,XT,Upper middle income,IBD,XF,IBRD,Thailand,1,1,1,1,1,1,68971331
Tajikistan,TJK,2016,45.8333333333333,0.5,1,0,1,1,0,0,0.5,1,0.5,0,0,37.5,1,1,0,1,0,0,0,0,50,0,1,0,0,0.5,1,1,0,1,0,0,1,1,0,1,28.5714285714286,0,0,0,1,1,0,0,40.4761904761905,TJ,Dushanbe,68.7864,38.5878,ECS,Z7,Europe & Central Asia,ECA,7E,Europe & Central Asia (excluding high income),LIC,XM,Low income,IDX,XI,IDA,Tajikistan,0,0,0,1,1,1,8663579
Turkmenistan,TKM,2016,4.16666666666667,0.5,0,0,0,0,0,0,0,0,0,0,0,12.5,1,0,0,0,0,0,0,0,26.6666666666667,0,0,0,0,1,1,1,0,0,0,0,1,0,0,0,14.2857142857143,0,0,0,0,1,0,0,14.4047619047619,TM,Ashgabat,58.3794,37.9509,ECS,Z7,Europe & Central Asia,ECA,7E,Europe & Central Asia (excluding high income),UMC,XT,Upper middle income,IBD,XF,IBRD,Turkmenistan,0,0,1,1,0,0,5662372
Timor-Leste,TLS,2016,50,1,0.5,1,0.5,1,0,0.5,0,1,0.5,0,0,50,1,0,0,1,0,1,0,1,33.3333333333333,0,0,0,0,0,0,1,0,1,0,0,1,1,0,1,14.2857142857143,0,0,0,0,1,0,0,36.9047619047619,TL,Dili,125.567,-8.56667,EAS,Z4,East Asia & Pacific,EAP,4E,East Asia & Pacific (excluding high income),LMC,XN,Lower middle income,IDB,XH,Blend,Timor-Leste,0,0,0,0,NA,NA,1219288
Tonga,TON,2016,25,0.5,0.5,0,0.5,0,0,0,0,1,0.5,0,0,25,1,1,0,0,0,0,0,0,26.6666666666667,0,0,0,0,0,0,1,0,1,0,0,1,0,0,1,0,0,0,0,0,0,0,0,19.1666666666667,TO,Nuku'alofa,-175.216,-21.136,EAS,Z4,East Asia & Pacific,EAP,4E,East Asia & Pacific (excluding high income),UMC,XT,Upper middle income,IDX,XI,IDA,Tonga,0,0,NA,NA,1,1,101133
Trinidad and Tobago,TTO,2016,37.5,0.5,0,0.5,0,1,0,0,0,1,0.5,1,0,12.5,1,0,0,0,0,0,0,0,26.6666666666667,0,0,0,0,1,0,0,1,1,0,0,1,0,0,0,14.2857142857143,0,0,0,0,1,0,0,22.7380952380952,TT,Port-of-Spain,-61.4789,10.6596,LCN,ZJ,Latin America & Caribbean ,NA,NA,NA,HIC,XD,High income,IBD,XF,IBRD,Trinidad and Tobago,0,0,1,1,0,0,1377564
Tunisia,TUN,2016,25,0.5,0.5,1,0,0,0,0,0,0,1,0,0,25,1,0,0,0,0,1,0,0,50,0,0,0.5,0,0,1,1,1,1,0,0,1,1,0,1,57.1428571428571,0,1,1,1,1,0,0,39.2857142857143,TN,Tunis,10.21,36.7899,MEA,ZQ,Middle East & North Africa,MNA,XQ,Middle East & North Africa (excluding high income),LMC,XN,Lower middle income,IBD,XF,IBRD,Tunisia,0,1,0,0,1,1,11303946
Turkey,TUR,2016,79.1666666666667,0.5,0,1,1,1,1,1,1,0,1,1,1,50,1,0,0,1,0,1,1,0,56.6666666666667,1,0,1,0,0.5,0,0,1,1,0,0,1,1,1,1,71.4285714285714,1,1,1,1,1,0,0,64.3154761904762,TR,Ankara,32.3606,39.7153,ECS,Z7,Europe & Central Asia,ECA,7E,Europe & Central Asia (excluding high income),UMC,XT,Upper middle income,IBD,XF,IBRD,Turkey,1,1,1,0,1,1,79821724
Tuvalu,TUV,2016,8.33333333333333,0,0,0,0.5,0,0,0,0,0,0.5,0,0,12.5,1,0,0,0,0,0,0,0,13.3333333333333,0,0,0,0,0,0,1,0,0,0,0,1,0,0,0,0,0,0,0,0,0,0,0,8.54166666666667,TV,Funafuti,179.089567,-8.6314877,EAS,Z4,East Asia & Pacific,EAP,4E,East Asia & Pacific (excluding high income),UMC,XT,Upper middle income,IDX,XI,IDA,Tuvalu,0,0,NA,NA,0,0,11225
Tanzania,TZA,2016,50,1,0.5,0.5,0.5,1,1,0,0,1,0.5,0,0,50,1,1,0,1,0,1,0,0,43.3333333333333,0,1,0.5,0,0,0,0,1,1,0,0,1,1,0,1,28.5714285714286,0,1,0,0,1,0,0,42.9761904761905,TZ,Dodoma,35.7382,-6.17486,SSF,ZG,Sub-Saharan Africa ,SSA,ZF,Sub-Saharan Africa (excluding high income),LIC,XM,Low income,IDX,XI,IDA,Tanzania,1,0,0,0,1,1,53050790
Uganda,UGA,2016,58.3333333333333,1,0.5,0,0.5,1,1,1,0.5,1,0.5,0,0,50,1,1,0,1,0,1,0,0,46.6666666666667,0.5,0,0.5,0,0,1,1,0,1,0,0,1,1,0,1,28.5714285714286,0,1,0,0,1,0,0,45.8928571428571,UG,Kampala,32.5729,0.314269,SSF,ZG,Sub-Saharan Africa ,SSA,ZF,Sub-Saharan Africa (excluding high income),LIC,XM,Low income,IDX,XI,IDA,Uganda,1,0,0,0,1,1,39647506
Ukraine,UKR,2016,75,0.5,1,1,1,1,0,0.5,0,1,1,1,1,37.5,0,0,0,1,0,1,0,1,73.3333333333333,1,0,1,0,1,1,1,1,1,0,0,1,1,1,1,42.8571428571429,1,0,0,1,1,0,0,57.172619047619,UA,Kiev,30.5038,50.4536,ECS,Z7,Europe & Central Asia,ECA,7E,Europe & Central Asia (excluding high income),LMC,XN,Lower middle income,IBD,XF,IBRD,Ukraine,1,1,1,1,1,1,45004645
Uruguay,URY,2016,37.5,0.5,0,0,0.5,0,0,0.5,0,1,1,1,0,62.5,1,1,1,1,0,1,0,0,63.3333333333333,1,1,1,0,0.5,0,1,1,1,0,0,1,1,1,0,71.4285714285714,1,1,1,1,1,0,0,58.6904761904762,UY,Montevideo,-56.0675,-34.8941,LCN,ZJ,Latin America & Caribbean ,NA,NA,NA,HIC,XD,High income,IBD,XF,IBRD,Uruguay,1,1,1,0,0,0,3424132
United States,USA,2016,79.1666666666667,1,1,1,1,0,1,1,0.5,1,1,1,0,NA,NA,NA,NA,NA,NA,NA,NA,NA,63.3333333333333,0.5,1,1,0,1,1,0,1,1,0,0,1,1,1,0,85.7142857142857,1,1,1,1,1,0,1,NA,US,Washington D.C.,-77.032,38.8895,NAC,XU,North America,NA,NA,NA,HIC,XD,High income,LNX,XX,Not classified,United States,1,1,1,1,0,0,322941311
Uzbekistan,UZB,2016,41.6666666666667,0.5,1,1,0,0,0,0.5,1,0,0,1,0,0,0,0,0,0,0,0,0,0,43.3333333333333,0,0,0.5,0,1,1,0,1,1,0,0,1,1,0,0,28.5714285714286,0,0,0,1,1,0,0,28.3928571428571,UZ,Tashkent,69.269,41.3052,ECS,Z7,Europe & Central Asia,ECA,7E,Europe & Central Asia (excluding high income),LMC,XN,Lower middle income,IDB,XH,Blend,Uzbekistan,0,1,1,1,NA,NA,31847900
St. Vincent and the Grenadines,VCT,2016,45.8333333333333,0.5,0.5,0.5,0.5,1,0,0,0,1,0.5,1,0,12.5,1,0,0,0,0,0,0,0,36.6666666666667,0,0,0.5,0,1,0,0,0,1,0,0,1,1,0,1,14.2857142857143,0,0,0,1,0,0,0,27.3214285714286,VC,Kingstown,-61.2653,13.2035,LCN,ZJ,Latin America & Caribbean ,LAC,XJ,Latin America & Caribbean (excluding high income),UMC,XT,Upper middle income,IDB,XH,Blend,NA,0,1,1,1,1,1,109459
"Venezuela, RB",VEN,2016,25,0.5,0,0,0,1,0,0,0,1,0.5,0,0,25,1,1,0,0,0,0,0,0,40,0,0,1,0,1,0,0,0,1,0,0,1,1,0,1,42.8571428571429,0,1,0,1,1,0,0,33.2142857142857,VE,Caracas,-69.8371,9.08165,LCN,ZJ,Latin America & Caribbean ,LAC,XJ,Latin America & Caribbean (excluding high income),UMC,XT,Upper middle income,IBD,XF,IBRD,NA,1,1,1,1,NA,NA,29846179
Vietnam,VNM,2016,33.3333333333333,0.5,0.5,1,0.5,0,0,0,0,0,0.5,1,0,87.5,1,1,1,1,0,1,1,1,50,1,1,0.5,0,0,0,0,1,1,0,0,1,1,0,1,57.1428571428571,0,1,1,1,1,0,0,56.9940476190476,VN,Hanoi,105.825,21.0069,EAS,Z4,East Asia & Pacific,EAP,4E,East Asia & Pacific (excluding high income),LMC,XN,Lower middle income,IBD,XF,IBRD,Vietnam,1,0,0,0,1,1,93638724
Vanuatu,VUT,2016,20.8333333333333,0.5,0.5,0,0,0,0,0,0,1,0.5,0,0,25,1,1,0,0,0,0,0,0,40,0,0,0,0,0,1,1,0,1,0,0,1,1,0,1,28.5714285714286,0,1,0,0,0,0,1,28.6011904761905,VU,Port-Vila,168.321,-17.7404,EAS,Z4,East Asia & Pacific,EAP,4E,East Asia & Pacific (excluding high income),LMC,XN,Lower middle income,IDX,XI,IDA,Vanuatu,0,0,NA,NA,NA,NA,278330
Samoa,WSM,2016,41.6666666666667,0.5,0.5,0.5,0.5,1,0,0,0.5,1,0.5,0,0,25,1,1,0,0,0,0,0,0,46.6666666666667,0,0,0,0,0,1,1,1,1,0,0,1,0,1,1,42.8571428571429,1,1,0,0,1,0,0,39.0476190476191,WS,Apia,-171.752,-13.8314,EAS,Z4,East Asia & Pacific,EAP,4E,East Asia & Pacific (excluding high income),UMC,XT,Upper middle income,IDX,XI,IDA,Samoa,0,0,NA,NA,1,1,194535
Kosovo,XKX,2016,50,0.5,0.5,1,0.5,1,0,0,1,1,0.5,0,0,37.5,1,0,0,1,0,1,0,0,46.6666666666667,1,0,0,0,0,0,0,1,1,0,0,1,1,1,1,42.8571428571429,1,0,1,1,0,0,0,44.2559523809524,XK,Pristina,20.926,42.565,ECS,Z7,Europe & Central Asia,ECA,7E,Europe & Central Asia (excluding high income),UMC,XT,Upper middle income,IDX,XI,IDA,Kosovo,NA,NA,NA,NA,NA,NA,1816200
"Yemen, Rep.",YEM,2016,25,0.5,0,0.5,0.5,1,0,0,0,0,0.5,0,0,0,0,0,0,0,0,0,0,0,20,0,0,0,0,0,0,0,0,1,0,0,1,0,0,1,0,0,0,0,0,0,0,0,11.25,YE,Sana'a,44.2075,15.352,MEA,ZQ,Middle East & North Africa,MNA,XQ,Middle East & North Africa (excluding high income),LIC,XM,Low income,IDX,XI,IDA,NA,0,0,0,0,NA,NA,27168210
South Africa,ZAF,2016,62.5,1,0.5,0.5,0.5,1,0,0.5,0.5,1,1,0,1,62.5,1,1,0,1,1,1,0,0,66.6666666666667,0,1,1,0,1,0,1,1,1,0,0,1,1,1,1,71.4285714285714,1,1,0,1,1,0,1,65.7738095238095,ZA,Pretoria,28.1871,-25.746,SSF,ZG,Sub-Saharan Africa ,SSA,ZF,Sub-Saharan Africa (excluding high income),UMC,XT,Upper middle income,IBD,XF,IBRD,South Africa,1,1,1,1,NA,NA,56203654
Zambia,ZMB,2016,37.5,1,0.5,0.5,0,1,0,0,0,1,0.5,0,0,37.5,1,0,0,0,1,1,0,0,36.6666666666667,0,0,0.5,0,0,0,1,0,1,0,0,1,1,0,1,42.8571428571429,0,1,1,1,0,0,0,38.6309523809524,ZM,Lusaka,28.2937,-15.3982,SSF,ZG,Sub-Saharan Africa ,SSA,ZF,Sub-Saharan Africa (excluding high income),LMC,XN,Lower middle income,IDX,XI,IDA,Zambia,1,0,0,0,1,1,16363507
Zimbabwe,ZWE,2016,33.3333333333333,0.5,0.5,0.5,0.5,1,0,0,0.5,0,0.5,0,0,50,1,0,1,1,0,0,1,0,40,0,0,0.5,0,0.5,0,1,0,1,0,0,1,1,0,1,0,0,0,0,0,0,0,0,30.8333333333333,ZW,Harare,31.0672,-17.8312,SSF,ZG,Sub-Saharan Africa ,SSA,ZF,Sub-Saharan Africa (excluding high income),LMC,XN,Lower middle income,IDB,XH,Blend,Zimbabwe,1,0,1,0,1,1,14030390
Afghanistan,AFG,2017,33.3333333333333,0.5,0,0,0,1,0,0.5,0.5,1,0.5,0,0,12.5,0,0,0,1,0,0,0,0,40,0,1,0,0,0,0,1,0,1,0,0,1,1,0,1,28.5714285714286,0,0,0,1,0,1,0,28.6011904761905,AF,Kabul,69.1761,34.5228,SAS,8S,South Asia,SAS,8S,South Asia,LIC,XM,Low income,IDX,XI,IDA,NA,0,0,0,0,1,1,36296400
Angola,AGO,2017,37.5,0.5,0,1,0.5,1,0,0,0,1,0.5,0,0,25,1,0,1,0,0,0,0,0,40,0,1,0,0,0,0,1,0,1,0,0,1,1,0,1,0,0,0,0,0,0,0,0,25.625,AO,Luanda,13.242,-8.81155,SSF,ZG,Sub-Saharan Africa ,SSA,ZF,Sub-Saharan Africa (excluding high income),LMC,XN,Lower middle income,IBD,XF,IBRD,Angola,0,0,0,0,1,1,29816748
Albania,ALB,2017,79.1666666666667,0.5,1,1,0.5,1,0,1,1,1,0.5,1,1,50,1,1,0,1,0,1,0,0,73.3333333333333,1,1,1,0,0,1,1,1,1,0,0,1,1,1,1,85.7142857142857,1,0,1,1,1,1,1,72.0535714285714,AL,Tirane,19.8172,41.3317,ECS,Z7,Europe & Central Asia,ECA,7E,Europe & Central Asia (excluding high income),UMC,XT,Upper middle income,IBD,XF,IBRD,Albania,1,1,0,0,1,1,2873457
United Arab Emirates,ARE,2017,58.3333333333333,0.5,0.5,1,0.5,1,0,1,1,1,0.5,0,0,NA,NA,NA,NA,NA,NA,NA,NA,NA,26.6666666666667,0,0,1,0,0,0,0,0,1,0,0,1,1,0,0,42.8571428571429,0,0,1,1,1,0,0,NA,AE,Abu Dhabi,54.3705,24.4764,MEA,ZQ,Middle East & North Africa,NA,NA,NA,HIC,XD,High income,LNX,XX,Not classified,NA,1,1,0,0,0,0,9487203
Argentina,ARG,2017,45.8333333333333,1,0,0.5,0,1,0,1,0,0,1,1,0,50,1,1,0,1,0,1,0,0,60,0,1,1,0,1,0,0,1,1,0,0,1,1,1,1,71.4285714285714,1,1,0,1,1,0,1,56.8154761904762,AR,Buenos Aires,-58.4173,-34.6118,LCN,ZJ,Latin America & Caribbean ,LAC,XJ,Latin America & Caribbean (excluding high income),UMC,XT,Upper middle income,IBD,XF,IBRD,NA,1,1,1,1,1,1,44044811
Armenia,ARM,2017,83.3333333333333,0.5,1,1,0.5,1,1,0.5,0.5,1,1,1,1,50,1,1,0,1,0,1,0,0,80,1,1,1,0,1,1,1,1,1,0,0,1,1,1,1,85.7142857142857,1,1,1,1,1,1,0,74.7619047619048,AM,Yerevan,44.509,40.1596,ECS,Z7,Europe & Central Asia,ECA,7E,Europe & Central Asia (excluding high income),UMC,XT,Upper middle income,IBD,XF,IBRD,Armenia,1,1,1,1,1,1,2944809
Antigua and Barbuda,ATG,2017,29.1666666666667,0.5,0,0.5,0,0,0,0,0,1,0.5,1,0,25,1,1,0,0,0,0,0,0,20,0,0,0,0,1,0,0,0,1,0,0,1,0,0,0,0,0,0,0,0,0,0,0,18.5416666666667,AG,Saint John's,-61.8456,17.1175,LCN,ZJ,Latin America & Caribbean ,NA,NA,NA,HIC,XD,High income,IBD,XF,IBRD,NA,0,0,1,1,0,0,95426
Australia,AUS,2017,100,1,1,1,1,1,1,1,1,1,1,1,1,NA,NA,NA,NA,NA,NA,NA,NA,NA,53.3333333333333,0,1,1,0,1,0,0,1,1,0,0,1,1,1,0,100,1,1,1,1,1,1,1,NA,AU,Canberra,149.129,-35.282,EAS,Z4,East Asia & Pacific,NA,NA,NA,HIC,XD,High income,LNX,XX,Not classified,Australia,1,1,1,1,0,0,24601860
Austria,AUT,2017,91.6666666666667,1,1,1,1,1,0,1,1,1,1,1,1,NA,NA,NA,NA,NA,NA,NA,NA,NA,66.6666666666667,1,1,1,0,1,1,0,1,1,0,0,1,1,1,0,57.1428571428571,1,1,1,0,1,0,0,NA,AT,Vienna,16.3798,48.2201,ECS,Z7,Europe & Central Asia,NA,NA,NA,HIC,XD,High income,LNX,XX,Not classified,Austria,1,1,1,1,0,0,8797566
Azerbaijan,AZE,2017,70.8333333333333,0.5,0,1,1,1,1,0.5,0,1,0.5,1,1,37.5,1,1,0,1,0,0,0,0,56.6666666666667,0,0,0.5,0,1,1,0,1,1,0,0,1,1,1,1,85.7142857142857,1,0,1,1,1,1,1,62.6785714285714,AZ,Baku,49.8932,40.3834,ECS,Z7,Europe & Central Asia,ECA,7E,Europe & Central Asia (excluding high income),UMC,XT,Upper middle income,IBD,XF,IBRD,Azerbaijan,0,1,1,1,1,1,9854033
Burundi,BDI,2017,33.3333333333333,0.5,0,0.5,0.5,1,0,0,0,1,0.5,0,0,12.5,1,0,0,0,0,0,0,0,33.3333333333333,0,0,0,0,0,0,1,0,1,0,0,1,1,0,1,42.8571428571429,1,1,0,0,1,0,0,30.5059523809524,BI,Bujumbura,29.3639,-3.3784,SSF,ZG,Sub-Saharan Africa ,SSA,ZF,Sub-Saharan Africa (excluding high income),LIC,XM,Low income,IDX,XI,IDA,Burundi,0,0,0,0,1,1,10827024
Belgium,BEL,2017,87.5,1,1,1,0.5,1,0,1,1,1,1,1,1,NA,NA,NA,NA,NA,NA,NA,NA,NA,66.6666666666667,1,1,1,0,1,1,0,1,1,0,0,1,1,1,0,57.1428571428571,1,0,1,1,1,0,0,NA,BE,Brussels,4.36761,50.8371,ECS,Z7,Europe & Central Asia,NA,NA,NA,HIC,XD,High income,LNX,XX,Not classified,Belgium,1,1,1,1,0,0,11375158
Benin,BEN,2017,29.1666666666667,0,0.5,0.5,0.5,0,0,0,0.5,1,0.5,0,0,50,1,0,1,1,0,1,0,0,36.6666666666667,0,0,0.5,0,0,0,1,0,1,0,0,1,1,0,1,28.5714285714286,0,1,0,0,1,0,0,36.1011904761905,BJ,Porto-Novo,2.6323,6.4779,SSF,ZG,Sub-Saharan Africa ,SSA,ZF,Sub-Saharan Africa (excluding high income),LIC,XM,Low income,IDX,XI,IDA,Benin,1,0,0,0,1,1,11175204
Burkina Faso,BFA,2017,33.3333333333333,0.5,0,0.5,0.5,1,0,0,0,1,0.5,0,0,25,0,1,0,1,0,0,0,0,40,0,1,0,0,0,0,1,0,1,0,0,1,1,0,1,42.8571428571429,0,1,1,1,0,0,0,35.297619047619,BF,Ouagadougou,-1.53395,12.3605,SSF,ZG,Sub-Saharan Africa ,SSA,ZF,Sub-Saharan Africa (excluding high income),LIC,XM,Low income,IDX,XI,IDA,Burkina Faso,0,0,0,0,1,1,19193284
Bangladesh,BGD,2017,25,0.5,0,1,0,0,0,0,0,1,0.5,0,0,50,1,1,0,0,0,1,1,0,60,0,1,1,0,0,1,1,1,1,0,0,1,1,0,1,28.5714285714286,0,1,0,0,1,0,0,40.8928571428571,BD,Dhaka,90.4113,23.7055,SAS,8S,South Asia,SAS,8S,South Asia,LMC,XN,Lower middle income,IDX,XI,IDA,Bangladesh,1,1,0,0,1,1,159670593
Bulgaria,BGR,2017,87.5,0.5,1,1,1,1,1,1,1,1,1,1,0,62.5,1,1,0,1,1,1,0,0,73.3333333333333,1,1,1,0,1,1,0,1,1,0,0,1,1,1,1,71.4285714285714,1,0,1,1,1,1,0,73.6904761904762,BG,Sofia,23.3238,42.7105,ECS,Z7,Europe & Central Asia,ECA,7E,Europe & Central Asia (excluding high income),UMC,XT,Upper middle income,IBD,XF,IBRD,Bulgaria,1,1,1,1,1,1,7075947
Bahrain,BHR,2017,37.5,0.5,0.5,0.5,0,1,0,0,0.5,0,0.5,1,0,NA,NA,NA,NA,NA,NA,NA,NA,NA,46.6666666666667,0,0,1,0,1,1,0,0,1,0,0,1,1,1,0,28.5714285714286,0,0,1,1,0,0,0,NA,BH,Manama,50.5354,26.1921,MEA,ZQ,Middle East & North Africa,NA,NA,NA,HIC,XD,High income,LNX,XX,Not classified,NA,1,1,1,1,0,0,1494074
"Bahamas, The",BHS,2017,25,0.5,0,1,0,0,0,0.5,0.5,0,0.5,0,0,NA,NA,NA,NA,NA,NA,NA,NA,NA,36.6666666666667,0,0,0.5,0,1,0,0,1,1,0,0,1,1,0,0,0,0,0,0,0,0,0,0,NA,BS,Nassau,-77.339,25.0661,LCN,ZJ,Latin America & Caribbean ,NA,NA,NA,HIC,XD,High income,LNX,XX,Not classified,NA,0,1,1,1,0,0,381761
Bosnia and Herzegovina,BIH,2017,66.6666666666667,0.5,1,1,0.5,1,0,1,0.5,1,0.5,1,0,37.5,1,0,0,1,0,1,0,0,63.3333333333333,0,1,1,0,0.5,1,0,1,1,0,0,1,1,1,1,28.5714285714286,1,0,0,0,1,0,0,49.0178571428571,BA,Sarajevo,18.4214,43.8607,ECS,Z7,Europe & Central Asia,ECA,7E,Europe & Central Asia (excluding high income),UMC,XT,Upper middle income,IBD,XF,IBRD,Bosnia and Herzegovina,1,1,0,1,1,1,3351527
Belarus,BLR,2017,79.1666666666667,0.5,1,1,1,1,0,0.5,0.5,1,1,1,1,25,1,0,0,1,0,0,0,0,66.6666666666667,1,0,1,0,1,1,0,1,1,0,0,1,1,1,1,57.1428571428571,1,0,1,0,1,1,0,56.9940476190476,BY,Minsk,27.5766,53.9678,ECS,Z7,Europe & Central Asia,ECA,7E,Europe & Central Asia (excluding high income),UMC,XT,Upper middle income,IBD,XF,IBRD,Belarus,1,1,1,1,1,1,9498264
Belize,BLZ,2017,29.1666666666667,0.5,0,0.5,0,1,0,0,0,1,0.5,0,0,50,1,1,0,1,0,1,0,0,53.3333333333333,0,0,1,0,1,0,1,1,1,0,0,1,1,0,1,42.8571428571429,1,0,0,1,0,0,1,43.8392857142857,BZ,Belmopan,-88.7713,17.2534,LCN,ZJ,Latin America & Caribbean ,LAC,XJ,Latin America & Caribbean (excluding high income),UMC,XT,Upper middle income,IBD,XF,IBRD,Belize,1,1,1,1,1,1,375769
Bolivia,BOL,2017,16.6666666666667,0,0,0.5,0,0,0,0,0,1,0.5,0,0,37.5,1,1,0,1,0,0,0,0,46.6666666666667,1,0,0,0,0,0,0,1,1,0,0,1,1,1,1,42.8571428571429,0,1,0,1,0,0,1,35.922619047619,BO,La Paz,-66.1936,-13.9908,LCN,ZJ,Latin America & Caribbean ,LAC,XJ,Latin America & Caribbean (excluding high income),LMC,XN,Lower middle income,IBD,XF,IBRD,Bolivia,0,0,0,0,1,1,11192854
Brazil,BRA,2017,54.1666666666667,1,0,1,0.5,1,0,1,0,1,1,0,0,50,1,0,0,1,1,1,0,0,63.3333333333333,1,0,1,0,0.5,0,1,1,1,0,0,1,1,1,1,71.4285714285714,1,1,1,1,1,0,0,59.7321428571429,BR,Brasilia,-47.9292,-15.7801,LCN,ZJ,Latin America & Caribbean ,LAC,XJ,Latin America & Caribbean (excluding high income),UMC,XT,Upper middle income,IBD,XF,IBRD,Brazil,1,1,1,0,1,1,207833831
Barbados,BRB,2017,33.3333333333333,0.5,0,0.5,0,0,0,0,0.5,1,0.5,1,0,NA,NA,NA,NA,NA,NA,NA,NA,NA,26.6666666666667,0,0,0,0,1,0,0,1,0,0,0,1,1,0,0,0,0,0,0,0,0,0,0,NA,BB,Bridgetown,-59.6105,13.0935,LCN,ZJ,Latin America & Caribbean ,NA,NA,NA,HIC,XD,High income,LNX,XX,Not classified,NA,0,0,1,1,0,0,286233
Brunei Darussalam,BRN,2017,41.6666666666667,0.5,0.5,0.5,0,1,0,0,0,1,0.5,1,0,NA,NA,NA,NA,NA,NA,NA,NA,NA,40,0,0,1,0,1,0,0,0,1,0,0,1,1,1,0,57.1428571428571,1,0,1,1,1,0,0,NA,BN,Bandar Seri Begawan,114.946,4.94199,EAS,Z4,East Asia & Pacific,NA,NA,NA,HIC,XD,High income,LNX,XX,Not classified,NA,1,1,1,1,0,0,424473
Bhutan,BTN,2017,20.8333333333333,0.5,0,0,0,0,0,0.5,0,1,0.5,0,0,37.5,0,1,0,1,0,1,0,0,50,0.5,0,0,0,0,1,1,1,1,0,0,1,1,0,1,42.8571428571429,0,1,1,1,0,0,0,37.7976190476191,BT,Thimphu,89.6177,27.5768,SAS,8S,South Asia,SAS,8S,South Asia,LMC,XN,Lower middle income,IDX,XI,IDA,Bhutan,0,0,0,0,1,1,745568
Botswana,BWA,2017,33.3333333333333,0.5,0,1,0,1,0,0,0,1,0.5,0,0,25,1,1,0,0,0,0,0,0,43.3333333333333,0,1,0,0,0.5,0,0,0,1,0,0,1,1,1,1,57.1428571428571,1,1,0,0,1,0,1,39.7023809523809,BW,Gaborone,25.9201,-24.6544,SSF,ZG,Sub-Saharan Africa ,SSA,ZF,Sub-Saharan Africa (excluding high income),UMC,XT,Upper middle income,IBD,XF,IBRD,Botswana,0,0,1,0,1,1,2205128
Central African Republic,CAF,2017,16.6666666666667,0,0,0.5,0,0,0,0,0,1,0.5,0,0,0,0,0,0,0,0,0,0,0,20,0,0,0,0,0,0,0,0,1,0,0,1,1,0,0,0,0,0,0,0,0,0,0,9.16666666666667,CF,Bangui,21.6407,5.63056,SSF,ZG,Sub-Saharan Africa ,SSA,ZF,Sub-Saharan Africa (excluding high income),LIC,XM,Low income,IDX,XI,IDA,Central African Republic,0,0,0,0,NA,NA,4596028
Canada,CAN,2017,91.6666666666667,1,1,1,0.5,1,1,1,0.5,1,1,1,1,NA,NA,NA,NA,NA,NA,NA,NA,NA,60,0,1,1,0,1,1,0,1,1,0,0,1,1,1,0,85.7142857142857,1,1,1,1,1,1,0,NA,CA,Ottawa,-75.6919,45.4215,NAC,XU,North America,NA,NA,NA,HIC,XD,High income,LNX,XX,Not classified,Canada,1,1,1,1,0,0,36543321
Switzerland,CHE,2017,75,1,1,1,1,1,0,1,1,0,1,1,0,NA,NA,NA,NA,NA,NA,NA,NA,NA,66.6666666666667,1,1,1,0,1,1,0,1,1,0,0,1,1,1,0,71.4285714285714,1,1,1,1,1,0,0,NA,CH,Bern,7.44821,46.948,ECS,Z7,Europe & Central Asia,NA,NA,NA,HIC,XD,High income,LNX,XX,Not classified,Switzerland,1,1,1,1,0,0,8451840
Chile,CHL,2017,62.5,0.5,0.5,0.5,0.5,1,0,0,0.5,1,1,1,1,62.5,1,1,0,1,0,1,0,1,70,1,1,1,0,0.5,1,1,1,1,0,0,1,1,1,0,71.4285714285714,1,1,1,1,1,0,0,66.6071428571429,CL,Santiago,-70.6475,-33.475,LCN,ZJ,Latin America & Caribbean ,NA,NA,NA,HIC,XD,High income,IBD,XF,IBRD,Chile,1,1,1,0,0,0,18470439
China,CHN,2017,50,0.5,0.5,1,1,1,0,0.5,0.5,0,1,0,0,37.5,1,1,0,1,0,0,0,0,60,1,1,1,0,0,0,0,1,1,0,0,1,1,1,1,71.4285714285714,1,0,1,1,1,0,1,54.7321428571429,CN,Beijing,116.286,40.0495,EAS,Z4,East Asia & Pacific,EAP,4E,East Asia & Pacific (excluding high income),UMC,XT,Upper middle income,IBD,XF,IBRD,China,1,1,0,0,NA,NA,1386395000
Cote d'Ivoire,CIV,2017,25,0,0.5,0.5,0.5,0,0,0,0,1,0.5,0,0,25,1,1,0,0,0,0,0,0,50,0,1,0.5,0,0,1,0,1,1,0,0,1,1,0,1,28.5714285714286,0,1,0,1,0,0,0,32.1428571428571,CI,Yamoussoukro,-4.0305,5.332,SSF,ZG,Sub-Saharan Africa ,SSA,ZF,Sub-Saharan Africa (excluding high income),LMC,XN,Lower middle income,IDX,XI,IDA,Cote d'Ivoire,1,0,0,0,1,1,24437469
Cameroon,CMR,2017,33.3333333333333,0.5,0,1,0,1,0,0,0,1,0.5,0,0,0,0,0,0,0,0,0,0,0,43.3333333333333,0,1,0.5,0,0,0,1,0,1,0,0,1,1,0,1,28.5714285714286,0,1,0,1,0,0,0,26.3095238095238,CM,Yaounde,11.5174,3.8721,SSF,ZG,Sub-Saharan Africa ,SSA,ZF,Sub-Saharan Africa (excluding high income),LMC,XN,Lower middle income,IDB,XH,Blend,Cameroon,1,0,0,0,1,1,24566045
"Congo, Dem. Rep.",COD,2017,16.6666666666667,0,0,0.5,0,0,0,0,0,1,0.5,0,0,12.5,0,0,0,0,0,0,1,0,26.6666666666667,0,0,0,0,0,0,0,0,1,0,0,1,1,0,1,0,0,0,0,0,0,0,0,13.9583333333333,CD,Kinshasa,15.3222,-4.325,SSF,ZG,Sub-Saharan Africa ,SSA,ZF,Sub-Saharan Africa (excluding high income),LIC,XM,Low income,IDX,XI,IDA,NA,0,0,0,0,NA,NA,81398764
"Congo, Rep.",COG,2017,20.8333333333333,0,0,0,0,1,0,0,0,1,0.5,0,0,25,1,1,0,0,0,0,0,0,33.3333333333333,0,0,0,0,0,1,0,0,1,0,0,1,1,0,1,0,0,0,0,0,0,0,0,19.7916666666667,CG,Brazzaville,15.2662,-4.2767,SSF,ZG,Sub-Saharan Africa ,SSA,ZF,Sub-Saharan Africa (excluding high income),LMC,XN,Lower middle income,IDB,XH,Blend,NA,0,0,0,0,1,1,5110702
Colombia,COL,2017,50,0.5,0,1,0.5,0,0,1,0,1,1,0,1,62.5,0,1,0,1,1,1,0,1,66.6666666666667,1,0,0,0,1,1,1,1,1,0,0,1,1,1,1,100,1,1,1,1,1,1,1,69.7916666666667,CO,Bogota,-74.082,4.60987,LCN,ZJ,Latin America & Caribbean ,LAC,XJ,Latin America & Caribbean (excluding high income),UMC,XT,Upper middle income,IBD,XF,IBRD,Colombia,0,0,1,1,1,1,48901066
Comoros,COM,2017,20.8333333333333,0,0,0,0,1,0,0,0,1,0.5,0,0,0,0,0,0,0,0,0,0,0,26.6666666666667,0,0,0,0,0,0,1,0,0,0,0,1,1,0,1,0,0,0,0,0,0,0,0,11.875,KM,Moroni,43.2418,-11.6986,SSF,ZG,Sub-Saharan Africa ,SSA,ZF,Sub-Saharan Africa (excluding high income),LMC,XN,Lower middle income,IDX,XI,IDA,Comoros,0,0,0,0,1,1,813892
Cabo Verde,CPV,2017,33.3333333333333,0.5,0.5,0,0,0,0,0.5,0,1,0.5,1,0,37.5,1,1,0,0,0,1,0,0,50,0,1,0.5,0,1,0,0,0,1,0,0,1,1,1,1,71.4285714285714,1,1,0,1,1,0,1,48.0654761904762,CV,Praia,-23.5087,14.9218,SSF,ZG,Sub-Saharan Africa ,SSA,ZF,Sub-Saharan Africa (excluding high income),LMC,XN,Lower middle income,IDB,XH,Blend,Cabo Verde,0,1,1,1,1,1,537497
Costa Rica,CRI,2017,70.8333333333333,1,1,1,0.5,1,0,1,0,1,1,1,0,50,1,1,0,1,0,1,0,0,80,1,1,1,0,1,1,1,1,1,0,0,1,1,1,1,100,1,1,1,1,1,1,1,75.2083333333333,CR,San Jose,-84.0089,9.63701,LCN,ZJ,Latin America & Caribbean ,LAC,XJ,Latin America & Caribbean (excluding high income),UMC,XT,Upper middle income,IBD,XF,IBRD,Costa Rica,1,1,1,1,1,1,4949954
Cyprus,CYP,2017,83.3333333333333,0.5,1,1,0.5,1,0,1,1,1,1,1,1,NA,NA,NA,NA,NA,NA,NA,NA,NA,56.6666666666667,1,0,0.5,0,1,1,0,1,1,0,0,1,1,1,0,42.8571428571429,1,0,0,1,1,0,0,NA,CY,Nicosia,33.3736,35.1676,ECS,Z7,Europe & Central Asia,NA,NA,NA,HIC,XD,High income,LNX,XX,Not classified,Cyprus,0,1,1,1,0,0,1179680
Czech Republic,CZE,2017,87.5,1,1,1,0.5,1,0,1,1,1,1,1,1,NA,NA,NA,NA,NA,NA,NA,NA,NA,66.6666666666667,1,1,1,0,1,1,0,1,1,0,0,1,1,1,0,42.8571428571429,0,0,1,1,1,0,0,NA,CZ,Prague,14.4205,50.0878,ECS,Z7,Europe & Central Asia,NA,NA,NA,HIC,XD,High income,LNX,XX,Not classified,Czech Republic,1,1,1,1,0,0,10594438
Germany,DEU,2017,87.5,1,1,1,0.5,1,0,1,1,1,1,1,1,NA,NA,NA,NA,NA,NA,NA,NA,NA,66.6666666666667,1,1,1,0,1,1,0,1,1,0,0,1,1,1,0,71.4285714285714,1,1,1,1,1,0,0,NA,DE,Berlin,13.4115,52.5235,ECS,Z7,Europe & Central Asia,NA,NA,NA,HIC,XD,High income,LNX,XX,Not classified,Germany,1,1,1,1,0,0,82657002
Djibouti,DJI,2017,16.6666666666667,0,0,0,0,0,0,0,0.5,1,0.5,0,0,12.5,1,0,0,0,0,0,0,0,36.6666666666667,0.5,0,0,0,0,0,1,0,1,0,0,1,1,0,1,0,0,0,0,0,0,0,0,16.4583333333333,DJ,Djibouti,43.1425,11.5806,MEA,ZQ,Middle East & North Africa,MNA,XQ,Middle East & North Africa (excluding high income),LMC,XN,Lower middle income,IDX,XI,IDA,Djibouti,0,0,NA,NA,1,1,944097
Dominica,DMA,2017,41.6666666666667,0.5,0,0.5,0.5,1,0,0,0,1,0.5,1,0,12.5,1,0,0,0,0,0,0,0,23.3333333333333,0,0,0.5,0,0,0,0,0,1,0,0,1,0,0,1,0,0,0,0,0,0,0,0,19.375,DM,Roseau,-61.39,15.2976,LCN,ZJ,Latin America & Caribbean ,LAC,XJ,Latin America & Caribbean (excluding high income),UMC,XT,Upper middle income,IDB,XH,Blend,NA,0,1,NA,NA,1,1,71458
Denmark,DNK,2017,83.3333333333333,1,1,1,1,1,0,1,1,1,1,1,0,NA,NA,NA,NA,NA,NA,NA,NA,NA,66.6666666666667,1,1,1,0,1,1,0,1,1,0,0,1,1,1,0,57.1428571428571,1,0,1,1,1,0,0,NA,DK,Copenhagen,12.5681,55.6763,ECS,Z7,Europe & Central Asia,NA,NA,NA,HIC,XD,High income,LNX,XX,Not classified,Denmark,1,1,1,1,0,0,5764980
Dominican Republic,DOM,2017,54.1666666666667,1,0.5,1,0.5,1,0,1,0,1,0.5,0,0,50,1,0,0,1,0,1,1,0,56.6666666666667,1,0,0,0,0.5,0,1,1,1,0,0,1,1,1,1,57.1428571428571,0,1,1,1,1,0,0,54.4940476190476,DO,Santo Domingo,-69.8908,18.479,LCN,ZJ,Latin America & Caribbean ,LAC,XJ,Latin America & Caribbean (excluding high income),UMC,XT,Upper middle income,IBD,XF,IBRD,Dominican Republic,0,0,1,0,1,1,10513131
Algeria,DZA,2017,25,0,0,0.5,0,1,0,0,0,1,0.5,0,0,25,1,0,1,0,0,0,0,0,46.6666666666667,0,0,1,0,0,0,1,1,1,0,0,1,1,0,1,14.2857142857143,0,0,1,0,0,0,0,27.7380952380952,DZ,Algiers,3.05097,36.7397,MEA,ZQ,Middle East & North Africa,MNA,XQ,Middle East & North Africa (excluding high income),UMC,XT,Upper middle income,IBD,XF,IBRD,Algeria,1,1,0,0,1,1,41389198
Ecuador,ECU,2017,50,1,0.5,1,0,1,0,0,0.5,1,1,0,0,62.5,1,0,1,1,0,1,0,1,73.3333333333333,1,1,0.5,0,0.5,1,1,1,1,0,0,1,1,1,1,71.4285714285714,1,1,1,1,1,0,0,64.3154761904762,EC,Quito,-78.5243,-0.229498,LCN,ZJ,Latin America & Caribbean ,LAC,XJ,Latin America & Caribbean (excluding high income),UMC,XT,Upper middle income,IBD,XF,IBRD,Ecuador,0,1,1,0,1,1,16785361
"Egypt, Arab Rep.",EGY,2017,66.6666666666667,0.5,0.5,1,0.5,1,0,0,0.5,1,1,1,1,37.5,0,1,0,1,0,1,0,0,46.6666666666667,0,1,0,0,1,0,0,1,1,0,0,1,1,0,1,71.4285714285714,1,1,1,1,1,0,0,55.5654761904762,EG,Cairo,31.2461,30.0982,MEA,ZQ,Middle East & North Africa,MNA,XQ,Middle East & North Africa (excluding high income),LMC,XN,Lower middle income,IBD,XF,IBRD,NA,0,0,1,1,1,1,96442593
Eritrea,ERI,2017,8.33333333333333,0,0,0,0,0,0,0,0,1,0,0,0,0,0,0,0,0,0,0,0,0,6.66666666666667,0,0,0,0,0,0,0,0,0,0,0,1,0,0,0,0,0,0,0,0,0,0,0,3.75,ER,Asmara,38.9183,15.3315,SSF,ZG,Sub-Saharan Africa ,SSA,ZF,Sub-Saharan Africa (excluding high income),LIC,XM,Low income,IDX,XI,IDA,NA,0,0,0,0,0,0,NA
Spain,ESP,2017,87.5,1,1,1,0.5,1,0,1,1,1,1,1,1,NA,NA,NA,NA,NA,NA,NA,NA,NA,66.6666666666667,1,1,1,0,1,1,0,1,1,0,0,1,1,1,0,85.7142857142857,1,1,1,1,1,1,0,NA,ES,Madrid,-3.70327,40.4167,ECS,Z7,Europe & Central Asia,NA,NA,NA,HIC,XD,High income,LNX,XX,Not classified,Spain,1,1,1,1,0,0,46593236
Estonia,EST,2017,83.3333333333333,1,1,1,1,1,1,1,0,1,1,1,0,NA,NA,NA,NA,NA,NA,NA,NA,NA,63.3333333333333,1,1,0.5,0,1,1,0,1,1,0,0,1,1,1,0,85.7142857142857,1,0,1,1,1,1,1,NA,EE,Tallinn,24.7586,59.4392,ECS,Z7,Europe & Central Asia,NA,NA,NA,HIC,XD,High income,LNX,XX,Not classified,Estonia,0,1,1,1,0,0,1317384
Ethiopia,ETH,2017,16.6666666666667,0.5,0.5,0,0,0,0,0,0.5,0,0.5,0,0,50,1,0,0,0,1,1,0,1,40,0,0,0,0,0,1,1,0,1,0,0,1,1,0,1,14.2857142857143,0,1,0,0,0,0,0,30.2380952380952,ET,Addis Ababa,38.7468,9.02274,SSF,ZG,Sub-Saharan Africa ,SSA,ZF,Sub-Saharan Africa (excluding high income),LIC,XM,Low income,IDX,XI,IDA,Ethiopia,0,0,0,0,1,1,106400024
Finland,FIN,2017,91.6666666666667,1,1,1,1,1,0,1,1,1,1,1,1,NA,NA,NA,NA,NA,NA,NA,NA,NA,66.6666666666667,1,1,1,0,1,1,0,1,1,0,0,1,1,1,0,71.4285714285714,1,1,1,1,1,0,0,NA,FI,Helsinki,24.9525,60.1608,ECS,Z7,Europe & Central Asia,NA,NA,NA,HIC,XD,High income,LNX,XX,Not classified,Finland,1,1,1,1,0,0,5508214
Fiji,FJI,2017,50,0.5,0.5,1,0.5,1,0,0,0,1,0.5,1,0,37.5,1,1,0,1,0,0,0,0,43.3333333333333,0,0,0.5,0,1,0,1,1,1,0,0,1,0,0,1,28.5714285714286,0,1,0,1,0,0,0,39.8511904761905,FJ,Suva,178.399,-18.1149,EAS,Z4,East Asia & Pacific,EAP,4E,East Asia & Pacific (excluding high income),UMC,XT,Upper middle income,IDB,XH,Blend,Fiji,0,1,1,1,1,1,877459
France,FRA,2017,91.6666666666667,1,1,1,1,1,0,1,1,1,1,1,1,NA,NA,NA,NA,NA,NA,NA,NA,NA,66.6666666666667,1,1,1,0,1,1,0,1,1,0,0,1,1,1,0,85.7142857142857,1,1,1,1,1,1,0,NA,FR,Paris,2.35097,48.8566,ECS,Z7,Europe & Central Asia,NA,NA,NA,HIC,XD,High income,LNX,XX,Not classified,France,1,1,1,1,0,0,66865144
"Micronesia, Fed. Sts.",FSM,2017,16.6666666666667,0.5,0,0,0,1,0,0,0,0,0.5,0,0,25,1,1,0,0,0,0,0,0,13.3333333333333,0,0,0,0,0,0,0,0,1,0,0,1,0,0,0,28.5714285714286,0,0,0,1,1,0,0,20.8928571428571,FM,Palikir,158.185,6.91771,EAS,Z4,East Asia & Pacific,EAP,4E,East Asia & Pacific (excluding high income),LMC,XN,Lower middle income,IDX,XI,IDA,NA,0,0,NA,NA,0,0,111459
Gabon,GAB,2017,20.8333333333333,0.5,0,0.5,0,0,0,0,0,1,0.5,0,0,12.5,1,0,0,0,0,0,0,0,33.3333333333333,0,0,0,0,0,0,1,0,1,0,0,1,1,0,1,14.2857142857143,0,0,0,1,0,0,0,20.2380952380952,GA,Libreville,9.45162,0.38832,SSF,ZG,Sub-Saharan Africa ,SSA,ZF,Sub-Saharan Africa (excluding high income),UMC,XT,Upper middle income,IBD,XF,IBRD,Gabon,0,0,0,0,1,1,2064823
United Kingdom,GBR,2017,83.3333333333333,1,1,1,1,1,0,1,1,0,1,1,1,NA,NA,NA,NA,NA,NA,NA,NA,NA,56.6666666666667,1,0,1,0,0.5,1,0,1,1,0,0,1,1,1,0,85.7142857142857,1,1,1,1,1,0,1,NA,GB,London,-0.126236,51.5002,ECS,Z7,Europe & Central Asia,NA,NA,NA,HIC,XD,High income,LNX,XX,Not classified,United Kingdom,1,1,1,0,0,0,66058859
Georgia,GEO,2017,79.1666666666667,0.5,1,0.5,0.5,1,1,0.5,0.5,1,1,1,1,50,1,1,0,1,0,1,0,0,80,1,1,1,0,1,1,1,1,1,0,0,1,1,1,1,71.4285714285714,1,1,0,1,1,0,1,70.1488095238095,GE,Tbilisi,44.793,41.71,ECS,Z7,Europe & Central Asia,ECA,7E,Europe & Central Asia (excluding high income),UMC,XT,Upper middle income,IBD,XF,IBRD,Georgia,1,1,1,1,1,1,3728004
Ghana,GHA,2017,37.5,0.5,0,1,0,1,0,0.5,0,1,0.5,0,0,37.5,1,0,0,1,0,0,1,0,60,0.5,1,0.5,0,0,1,1,1,1,0,0,1,1,0,1,42.8571428571429,1,1,0,0,0,1,0,44.4642857142857,GH,Accra,-0.20795,5.57045,SSF,ZG,Sub-Saharan Africa ,SSA,ZF,Sub-Saharan Africa (excluding high income),LMC,XN,Lower middle income,IDX,XI,IDA,Ghana,1,0,0,0,1,1,29121471
Guinea,GIN,2017,8.33333333333333,0.5,0,0,0,0,0,0,0,0,0.5,0,0,12.5,1,0,0,0,0,0,0,0,40,0,1,0,0,0,0,1,0,1,0,0,1,1,0,1,14.2857142857143,0,1,0,0,0,0,0,18.7797619047619,GN,Conakry,-13.7,9.51667,SSF,ZG,Sub-Saharan Africa ,SSA,ZF,Sub-Saharan Africa (excluding high income),LIC,XM,Low income,IDX,XI,IDA,Guinea,0,0,0,0,1,1,12067539
"Gambia, The",GMB,2017,25,0.5,0,0.5,0,0,0,0.5,0,1,0.5,0,0,25,1,1,0,0,0,0,0,0,33.3333333333333,0,1,0,0,0,0,0,0,1,0,0,1,1,0,1,14.2857142857143,0,1,0,0,0,0,0,24.4047619047619,GM,Banjul,-16.5885,13.4495,SSF,ZG,Sub-Saharan Africa ,SSA,ZF,Sub-Saharan Africa (excluding high income),LIC,XM,Low income,IDX,XI,IDA,"Gambia, The",0,0,0,0,1,1,2213894
Guinea-Bissau,GNB,2017,20.8333333333333,0.5,0,0,0.5,0,0,0,0,1,0.5,0,0,12.5,1,0,0,0,0,0,0,0,33.3333333333333,0,0,0,0,0,0,1,0,1,0,0,1,1,0,1,14.2857142857143,0,1,0,0,0,0,0,20.2380952380952,GW,Bissau,-15.1804,11.8037,SSF,ZG,Sub-Saharan Africa ,SSA,ZF,Sub-Saharan Africa (excluding high income),LIC,XM,Low income,IDX,XI,IDA,Guinea-Bissau,0,0,0,0,1,1,1828146
Equatorial Guinea,GNQ,2017,20.8333333333333,0,0,0,0,1,0,0,0,1,0.5,0,0,25,1,1,0,0,0,0,0,0,20,0,0,0,0,0,0,0,0,1,0,0,1,1,0,0,0,0,0,0,0,0,0,0,16.4583333333333,GQ,Malabo,8.7741,3.7523,SSF,ZG,Sub-Saharan Africa ,SSA,ZF,Sub-Saharan Africa (excluding high income),UMC,XT,Upper middle income,IBD,XF,IBRD,NA,0,0,0,0,0,0,1262001
Greece,GRC,2017,79.1666666666667,1,1,1,0.5,1,0,1,1,1,1,1,0,NA,NA,NA,NA,NA,NA,NA,NA,NA,66.6666666666667,1,1,1,0,1,1,0,1,1,0,0,1,1,1,0,57.1428571428571,1,1,0,0,1,1,0,NA,GR,Athens,23.7166,37.9792,ECS,Z7,Europe & Central Asia,NA,NA,NA,HIC,XD,High income,LNX,XX,Not classified,Greece,1,1,1,1,0,0,10754679
Grenada,GRD,2017,29.1666666666667,0,0,0.5,0.5,0,0,0,0,1,0.5,1,0,25,1,1,0,0,0,0,0,0,43.3333333333333,0,0,0.5,0,1,1,0,1,1,0,0,1,0,0,1,0,0,0,0,0,0,0,0,24.375,GD,Saint George's,-61.7449,12.0653,LCN,ZJ,Latin America & Caribbean ,LAC,XJ,Latin America & Caribbean (excluding high income),UMC,XT,Upper middle income,IDB,XH,Blend,NA,0,1,1,1,1,1,110874
Guatemala,GTM,2017,33.3333333333333,0.5,0,0.5,0.5,0,0,0,0,1,0.5,1,0,25,0,0,0,0,1,1,0,0,66.6666666666667,0,1,0,0,1,1,1,1,1,0,0,1,1,1,1,28.5714285714286,0,1,0,1,0,0,0,38.3928571428571,GT,Guatemala City,-90.5328,14.6248,LCN,ZJ,Latin America & Caribbean ,LAC,XJ,Latin America & Caribbean (excluding high income),UMC,XT,Upper middle income,IBD,XF,IBRD,Guatemala,0,0,1,1,1,1,16914936
Guyana,GUY,2017,25,0.5,0,1,0,0,0,0,0,1,0.5,0,0,12.5,1,0,0,0,0,0,0,0,40,0,0,0,0,1,0,1,0,1,0,0,1,1,0,1,0,0,0,0,0,0,0,0,19.375,GY,Georgetown,-58.1548,6.80461,LCN,ZJ,Latin America & Caribbean ,LAC,XJ,Latin America & Caribbean (excluding high income),UMC,XT,Upper middle income,IDX,XI,IDA,Guyana,0,0,1,1,1,1,775221
Honduras,HND,2017,37.5,0.5,0,0.5,0,1,0,1,0,1,0.5,0,0,50,1,0,0,1,1,1,0,0,56.6666666666667,1,1,0,0,0.5,0,1,1,1,0,0,1,1,0,1,28.5714285714286,0,1,0,0,0,1,0,43.1845238095238,HN,Tegucigalpa,-87.4667,15.1333,LCN,ZJ,Latin America & Caribbean ,LAC,XJ,Latin America & Caribbean (excluding high income),LMC,XN,Lower middle income,IDX,XI,IDA,Honduras,0,0,1,0,1,1,9429013
Croatia,HRV,2017,79.1666666666667,0.5,1,1,0.5,1,1,0,0.5,1,1,1,1,62.5,1,1,0,1,1,1,0,0,66.6666666666667,1,1,1,0,1,1,0,1,1,0,0,1,1,1,0,85.7142857142857,1,0,1,1,1,1,1,73.5119047619048,HR,Zagreb,15.9614,45.8069,ECS,Z7,Europe & Central Asia,NA,NA,NA,HIC,XD,High income,IBD,XF,IBRD,Croatia,1,1,1,1,0,0,4124531
Haiti,HTI,2017,20.8333333333333,0,0,0,0,1,0,0,0,1,0.5,0,0,12.5,0,1,0,0,0,0,0,0,30,0.5,0,0,0,0,0,1,0,0,0,0,1,1,0,1,14.2857142857143,0,0,0,0,1,0,0,19.4047619047619,HT,Port-au-Prince,-72.3288,18.5392,LCN,ZJ,Latin America & Caribbean ,LAC,XJ,Latin America & Caribbean (excluding high income),LIC,XM,Low income,IDX,XI,IDA,Haiti,0,0,0,0,1,1,10982366
Hungary,HUN,2017,100,1,1,1,1,1,1,1,1,1,1,1,1,NA,NA,NA,NA,NA,NA,NA,NA,NA,66.6666666666667,1,1,1,0,1,1,0,1,1,0,0,1,1,1,0,100,1,1,1,1,1,1,1,NA,HU,Budapest,19.0408,47.4984,ECS,Z7,Europe & Central Asia,NA,NA,NA,HIC,XD,High income,LNX,XX,Not classified,Hungary,1,1,1,1,0,0,9787966
Indonesia,IDN,2017,50,0.5,0.5,1,0.5,0,0,0.5,1,1,1,0,0,62.5,1,1,0,1,0,1,0,1,63.3333333333333,1,1,0.5,0,0,0,1,1,1,0,0,1,1,1,1,71.4285714285714,1,1,1,1,1,0,0,61.8154761904762,ID,Jakarta,106.83,-6.19752,EAS,Z4,East Asia & Pacific,EAP,4E,East Asia & Pacific (excluding high income),LMC,XN,Lower middle income,IBD,XF,IBRD,Indonesia,1,0,0,0,1,1,264645886
India,IND,2017,50,1,0.5,0.5,0.5,1,0,0.5,1,0,1,0,0,75,1,1,1,1,0,1,0,1,50,0,0,1,0,0.5,0,1,0,1,0,0,1,1,1,1,57.1428571428571,1,1,1,0,1,0,0,58.0357142857143,IN,New Delhi,77.225,28.6353,SAS,8S,South Asia,SAS,8S,South Asia,LMC,XN,Lower middle income,IBD,XF,IBRD,India,1,1,1,0,1,1,1338658835
Ireland,IRL,2017,79.1666666666667,1,1,1,0.5,1,0,1,1,1,1,1,0,NA,NA,NA,NA,NA,NA,NA,NA,NA,66.6666666666667,1,1,1,0,1,1,0,1,1,0,0,1,1,1,0,71.4285714285714,1,1,1,1,1,0,0,NA,IE,Dublin,-6.26749,53.3441,ECS,Z7,Europe & Central Asia,NA,NA,NA,HIC,XD,High income,LNX,XX,Not classified,Ireland,1,1,1,1,0,0,4807388
"Iran, Islamic Rep.",IRN,2017,37.5,0.5,0,0.5,0.5,1,0,0.5,0,0,0.5,1,0,50,1,1,0,1,0,1,0,0,53.3333333333333,0,0,0,0,1,1,0,1,1,0,0,1,1,1,1,28.5714285714286,0,0,0,1,1,0,0,42.3511904761905,IR,Tehran,51.4447,35.6878,MEA,ZQ,Middle East & North Africa,MNA,XQ,Middle East & North Africa (excluding high income),UMC,XT,Upper middle income,IBD,XF,IBRD,NA,0,0,1,1,1,1,80673951
Iraq,IRQ,2017,37.5,0,0.5,0.5,0.5,1,0,0,0.5,1,0.5,0,0,0,0,0,0,0,0,0,0,0,40,0,0,0,0,0,1,1,1,1,0,0,1,1,0,0,0,0,0,0,0,0,0,0,19.375,IQ,Baghdad,44.394,33.3302,MEA,ZQ,Middle East & North Africa,MNA,XQ,Middle East & North Africa (excluding high income),UMC,XT,Upper middle income,IBD,XF,IBRD,Iraq,0,0,0,0,0,0,37552781
Iceland,ISL,2017,91.6666666666667,1,1,0.5,1,1,1,1,0.5,1,1,1,1,NA,NA,NA,NA,NA,NA,NA,NA,NA,63.3333333333333,1,1,0.5,0,1,1,0,1,1,0,0,1,1,1,0,57.1428571428571,1,0,1,1,1,0,0,NA,IS,Reykjavik,-21.8952,64.1353,ECS,Z7,Europe & Central Asia,NA,NA,NA,HIC,XD,High income,LNX,XX,Not classified,Iceland,0,1,1,1,0,0,343400
Israel,ISR,2017,87.5,1,1,1,0.5,1,0,1,1,1,1,1,1,NA,NA,NA,NA,NA,NA,NA,NA,NA,63.3333333333333,1,1,1,0,0.5,1,0,1,1,0,0,1,1,1,0,71.4285714285714,1,1,1,1,1,0,0,NA,IL,NA,35.2035,31.7717,MEA,ZQ,Middle East & North Africa,NA,NA,NA,HIC,XD,High income,LNX,XX,Not classified,Israel,1,1,1,0,0,0,8713300
Italy,ITA,2017,91.6666666666667,1,1,1,1,1,0,1,1,1,1,1,1,NA,NA,NA,NA,NA,NA,NA,NA,NA,66.6666666666667,1,1,1,0,1,1,0,1,1,0,0,1,1,1,0,71.4285714285714,1,1,1,1,1,0,0,NA,IT,Rome,12.4823,41.8955,ECS,Z7,Europe & Central Asia,NA,NA,NA,HIC,XD,High income,LNX,XX,Not classified,Italy,1,1,1,1,0,0,60536709
Jamaica,JAM,2017,33.3333333333333,0.5,0.5,0.5,0,1,0,0,0,1,0.5,0,0,50,1,1,0,1,0,1,0,0,53.3333333333333,0,0,0,0,1,0,1,1,1,0,0,1,1,1,1,57.1428571428571,1,0,0,1,1,0,1,48.4523809523809,JM,Kingston,-76.792,17.9927,LCN,ZJ,Latin America & Caribbean ,LAC,XJ,Latin America & Caribbean (excluding high income),UMC,XT,Upper middle income,IBD,XF,IBRD,Jamaica,0,0,1,1,1,1,2920853
Jordan,JOR,2017,25,0,0,1,0.5,0,0,0,0.5,0,1,0,0,50,1,1,0,0,0,1,1,0,46.6666666666667,0,0,0,0,0,1,1,1,1,0,0,1,1,0,1,57.1428571428571,0,1,1,1,1,0,0,44.7023809523809,JO,Amman,35.9263,31.9497,MEA,ZQ,Middle East & North Africa,MNA,XQ,Middle East & North Africa (excluding high income),UMC,XT,Upper middle income,IBD,XF,IBRD,Jordan,0,0,0,0,1,1,9779173
Japan,JPN,2017,70.8333333333333,0.5,1,1,0.5,1,0,1,0.5,1,1,1,0,NA,NA,NA,NA,NA,NA,NA,NA,NA,60,0,1,1,0,1,1,0,1,1,0,0,1,1,1,0,42.8571428571429,0,0,1,1,1,0,0,NA,JP,Tokyo,139.77,35.67,EAS,Z4,East Asia & Pacific,NA,NA,NA,HIC,XD,High income,LNX,XX,Not classified,Japan,1,1,1,1,0,0,126785797
Kazakhstan,KAZ,2017,75,0.5,1,1,1,1,0,0.5,0,1,1,1,1,50,1,1,0,1,0,1,0,0,80,1,1,1,0,1,1,1,1,1,0,0,1,1,1,1,57.1428571428571,1,0,1,1,1,0,0,65.5357142857143,KZ,Astana,71.4382,51.1879,ECS,Z7,Europe & Central Asia,ECA,7E,Europe & Central Asia (excluding high income),UMC,XT,Upper middle income,IBD,XF,IBRD,Kazakhstan,1,1,1,1,1,1,18037776
Kenya,KEN,2017,37.5,1,0.5,0.5,0,0,0,1,0,1,0.5,0,0,37.5,1,0,1,0,0,0,1,0,40,0,1,0,0,0,0,1,0,1,0,0,1,1,0,1,14.2857142857143,0,1,0,0,0,0,0,32.3214285714286,KE,Nairobi,36.8126,-1.27975,SSF,ZG,Sub-Saharan Africa ,SSA,ZF,Sub-Saharan Africa (excluding high income),LMC,XN,Lower middle income,IDB,XH,Blend,Kenya,0,0,0,0,1,1,50221473
Kyrgyz Republic,KGZ,2017,87.5,0.5,1,1,1,1,1,0.5,0.5,1,1,1,1,25,1,0,0,1,0,0,0,0,73.3333333333333,1,1,1,0,1,1,0,1,1,0,0,1,1,1,1,57.1428571428571,1,1,0,1,1,0,0,60.7440476190476,KG,Bishkek,74.6057,42.8851,ECS,Z7,Europe & Central Asia,ECA,7E,Europe & Central Asia (excluding high income),LMC,XN,Lower middle income,IDX,XI,IDA,Kyrgyz Republic,1,1,1,1,1,1,6198200
Cambodia,KHM,2017,37.5,0.5,0,0.5,0,1,0,0,0,1,0.5,0,1,62.5,1,1,1,1,0,0,0,1,53.3333333333333,0,1,0,0,0,1,1,1,1,0,0,1,1,0,1,42.8571428571429,0,1,0,1,1,0,0,49.0476190476191,KH,Phnom Penh,104.874,11.5556,EAS,Z4,East Asia & Pacific,EAP,4E,East Asia & Pacific (excluding high income),LMC,XN,Lower middle income,IDX,XI,IDA,NA,0,0,0,0,1,1,16009414
Kiribati,KIR,2017,16.6666666666667,0.5,0,0.5,0,0,0,0.5,0,0,0.5,0,0,12.5,1,0,0,0,0,0,0,0,20,0,0,0,0,0,0,1,0,1,0,0,1,0,0,0,0,0,0,0,0,0,0,0,12.2916666666667,KI,Tarawa,172.979,1.32905,EAS,Z4,East Asia & Pacific,EAP,4E,East Asia & Pacific (excluding high income),LMC,XN,Lower middle income,IDX,XI,IDA,Kiribati,0,0,0,0,0,0,114158
St. Kitts and Nevis,KNA,2017,29.1666666666667,0.5,0,0.5,0,0,0,0,0,1,0.5,1,0,12.5,1,0,0,0,0,0,0,0,13.3333333333333,0,0,0,0,0,0,0,0,1,0,0,1,0,0,0,0,0,0,0,0,0,0,0,13.75,KN,Basseterre,-62.7309,17.3,LCN,ZJ,Latin America & Caribbean ,NA,NA,NA,HIC,XD,High income,IBD,XF,IBRD,NA,NA,NA,NA,NA,0,0,52045
"Korea, Rep.",KOR,2017,70.8333333333333,1,0.5,1,0.5,1,0,0,0.5,1,1,1,1,NA,NA,NA,NA,NA,NA,NA,NA,NA,60,0,1,1,0,1,1,0,1,1,0,0,1,1,1,0,57.1428571428571,1,0,1,1,1,0,0,NA,KR,Seoul,126.957,37.5323,EAS,Z4,East Asia & Pacific,NA,NA,NA,HIC,XD,High income,LNX,XX,Not classified,NA,1,1,1,1,0,0,51361911
Kuwait,KWT,2017,37.5,0.5,0.5,0.5,0,0,0,0.5,0,1,0.5,1,0,NA,NA,NA,NA,NA,NA,NA,NA,NA,43.3333333333333,0,0,1,0,0.5,1,0,1,1,0,0,1,1,0,0,14.2857142857143,0,0,0,1,0,0,0,NA,KW,Kuwait City,47.9824,29.3721,MEA,ZQ,Middle East & North Africa,NA,NA,NA,HIC,XD,High income,LNX,XX,Not classified,NA,1,1,0,1,0,0,4056097
Lao PDR,LAO,2017,16.6666666666667,0.5,0.5,0,0.5,0,0,0,0,0,0.5,0,0,25,1,1,0,0,0,0,0,0,33.3333333333333,0,0,0,0,0,1,0,0,1,0,0,1,1,0,1,14.2857142857143,0,1,0,0,0,0,0,22.3214285714286,LA,Vientiane,102.177,18.5826,EAS,Z4,East Asia & Pacific,EAP,4E,East Asia & Pacific (excluding high income),LMC,XN,Lower middle income,IDX,XI,IDA,NA,0,0,0,0,1,1,6953035
Lebanon,LBN,2017,29.1666666666667,0.5,0.5,0,0.5,0,0,0,0.5,0,0.5,1,0,12.5,0,1,0,0,0,0,0,0,33.3333333333333,0,0,0,0,0,1,0,0,1,0,0,1,1,0,1,14.2857142857143,0,0,0,0,1,0,0,22.3214285714286,LB,Beirut,35.5134,33.8872,MEA,ZQ,Middle East & North Africa,MNA,XQ,Middle East & North Africa (excluding high income),UMC,XT,Upper middle income,IBD,XF,IBRD,Lebanon,0,0,0,0,1,1,6811873
Liberia,LBR,2017,25,0,0,0.5,0,1,0,0.5,0.5,0,0.5,0,0,37.5,1,0,1,1,0,0,0,0,50,0.5,1,0,0,0,0,1,1,1,0,0,1,1,0,1,0,0,0,0,0,0,0,0,28.125,LR,Monrovia,-10.7957,6.30039,SSF,ZG,Sub-Saharan Africa ,SSA,ZF,Sub-Saharan Africa (excluding high income),LIC,XM,Low income,IDX,XI,IDA,Liberia,0,0,0,0,1,1,4702228
Libya,LBY,2017,20.8333333333333,0.5,0,0.5,0,1,0,0,0,0,0.5,0,0,0,0,0,0,0,0,0,0,0,6.66666666666667,0,0,0,0,0,0,0,0,0,0,0,1,0,0,0,0,0,0,0,0,0,0,0,6.875,LY,Tripoli,13.1072,32.8578,MEA,ZQ,Middle East & North Africa,MNA,XQ,Middle East & North Africa (excluding high income),UMC,XT,Upper middle income,IBD,XF,IBRD,NA,0,0,NA,NA,0,0,6580724
St. Lucia,LCA,2017,29.1666666666667,0,0,0.5,0.5,0,0,0,0,1,0.5,1,0,37.5,1,1,0,0,0,1,0,0,50,0,1,0.5,0,1,0,0,1,1,0,0,1,1,0,1,28.5714285714286,0,1,0,1,0,0,0,36.3095238095238,LC,Castries,-60.9832,14,LCN,ZJ,Latin America & Caribbean ,LAC,XJ,Latin America & Caribbean (excluding high income),UMC,XT,Upper middle income,IDB,XH,Blend,St. Lucia,0,1,1,1,1,1,180955
Sri Lanka,LKA,2017,54.1666666666667,0.5,0.5,1,0.5,1,0,0,0,1,1,1,0,62.5,1,1,1,1,0,1,0,0,60,0.5,0,1,0,0.5,0,1,1,1,0,0,1,1,1,1,71.4285714285714,1,1,0,1,1,0,1,62.0238095238095,LK,Colombo,79.8528,6.92148,SAS,8S,South Asia,SAS,8S,South Asia,UMC,XT,Upper middle income,IBD,XF,IBRD,Sri Lanka,1,1,1,0,1,1,21444000
Lesotho,LSO,2017,37.5,0.5,0.5,0.5,0,1,0,0,0.5,1,0.5,0,0,37.5,1,1,0,0,1,0,0,0,40,0,1,0,0,0,0,1,0,1,0,0,1,1,0,1,28.5714285714286,0,1,0,0,1,0,0,35.8928571428571,LS,Maseru,27.7167,-29.5208,SSF,ZG,Sub-Saharan Africa ,SSA,ZF,Sub-Saharan Africa (excluding high income),LMC,XN,Lower middle income,IDX,XI,IDA,Lesotho,0,0,0,0,1,1,2091412
Lithuania,LTU,2017,100,1,1,1,1,1,1,1,1,1,1,1,1,NA,NA,NA,NA,NA,NA,NA,NA,NA,66.6666666666667,1,1,1,0,1,1,0,1,1,0,0,1,1,1,0,57.1428571428571,1,0,1,1,1,0,0,NA,LT,Vilnius,25.2799,54.6896,ECS,Z7,Europe & Central Asia,NA,NA,NA,HIC,XD,High income,LNX,XX,Not classified,Lithuania,1,1,1,1,0,0,2828403
Luxembourg,LUX,2017,83.3333333333333,1,1,1,1,1,0,1,1,1,1,1,0,NA,NA,NA,NA,NA,NA,NA,NA,NA,63.3333333333333,1,1,0.5,0,1,1,0,1,1,0,0,1,1,1,0,57.1428571428571,1,0,1,1,1,0,0,NA,LU,Luxembourg,6.1296,49.61,ECS,Z7,Europe & Central Asia,NA,NA,NA,HIC,XD,High income,LNX,XX,Not classified,Luxembourg,0,1,1,1,0,0,596336
Latvia,LVA,2017,91.6666666666667,1,1,1,1,1,1,1,0,1,1,1,1,NA,NA,NA,NA,NA,NA,NA,NA,NA,66.6666666666667,1,1,1,0,1,1,0,1,1,0,0,1,1,1,0,85.7142857142857,1,1,1,1,1,0,1,NA,LV,Riga,24.1048,56.9465,ECS,Z7,Europe & Central Asia,NA,NA,NA,HIC,XD,High income,LNX,XX,Not classified,Latvia,1,1,1,1,0,0,1942248
Morocco,MAR,2017,50,0.5,0.5,0.5,0.5,1,1,0,0,1,1,0,0,50,1,1,0,1,0,0,0,1,53.3333333333333,0,0,0,0,0,1,1,1,1,0,0,1,1,1,1,57.1428571428571,0,1,1,1,1,0,0,52.6190476190476,MA,Rabat,-6.8704,33.9905,MEA,ZQ,Middle East & North Africa,MNA,XQ,Middle East & North Africa (excluding high income),LMC,XN,Lower middle income,IBD,XF,IBRD,Morocco,0,0,0,0,1,1,35581294
Moldova,MDA,2017,87.5,0.5,1,1,1,1,1,0.5,0.5,1,1,1,1,50,1,1,0,1,0,1,0,0,73.3333333333333,1,1,1,0,1,1,0,1,1,0,0,1,1,1,1,57.1428571428571,1,0,1,1,1,0,0,66.9940476190476,MD,Chisinau,28.8497,47.0167,ECS,Z7,Europe & Central Asia,ECA,7E,Europe & Central Asia (excluding high income),LMC,XN,Lower middle income,IDB,XH,Blend,Moldova,1,1,1,1,1,1,2755158
Madagascar,MDG,2017,29.1666666666667,0,0,0,0.5,1,0,0,0.5,1,0.5,0,0,0,0,0,0,0,0,0,0,0,33.3333333333333,0,0,0,0,0,0,1,0,1,0,0,1,1,0,1,0,0,0,0,0,0,0,0,15.625,MG,Antananarivo,45.7167,-20.4667,SSF,ZG,Sub-Saharan Africa ,SSA,ZF,Sub-Saharan Africa (excluding high income),LIC,XM,Low income,IDX,XI,IDA,Madagascar,0,0,0,0,1,1,25570540
Maldives,MDV,2017,41.6666666666667,0.5,0,0,0.5,1,0,0.5,0,1,0.5,1,0,12.5,1,0,0,0,0,0,0,0,33.3333333333333,0,0,0.5,0,0.5,0,1,0,1,0,0,1,0,0,1,0,0,0,0,0,0,0,0,21.875,MV,Male,73.5109,4.1742,SAS,8S,South Asia,SAS,8S,South Asia,UMC,XT,Upper middle income,IDX,XI,IDA,Maldives,0,1,0,1,1,1,496402
Mexico,MEX,2017,79.1666666666667,1,0.5,1,0.5,1,1,0.5,0,1,1,1,1,62.5,1,1,1,1,0,1,0,0,76.6666666666667,1,1,1,0,0.5,1,1,1,1,0,0,1,1,1,1,85.7142857142857,1,1,1,1,1,0,1,76.0119047619048,MX,Mexico City,-99.1276,19.427,LCN,ZJ,Latin America & Caribbean ,LAC,XJ,Latin America & Caribbean (excluding high income),UMC,XT,Upper middle income,IBD,XF,IBRD,Mexico,1,1,1,0,1,1,124777324
Marshall Islands,MHL,2017,4.16666666666667,0,0,0,0,0,0,0,0,0,0.5,0,0,12.5,1,0,0,0,0,0,0,0,20,0,0,0,0,0,0,0,0,1,0,0,1,1,0,0,0,0,0,0,0,0,0,0,9.16666666666667,MH,Majuro,171.135,7.11046,EAS,Z4,East Asia & Pacific,EAP,4E,East Asia & Pacific (excluding high income),UMC,XT,Upper middle income,IDX,XI,IDA,NA,0,0,NA,NA,0,0,58058
North Macedonia,MKD,2017,66.6666666666667,0.5,0,1,1,1,0,0.5,0,1,1,1,1,37.5,0,1,0,1,0,1,0,0,73.3333333333333,1,1,1,0,1,1,0,1,1,0,0,1,1,1,1,71.4285714285714,1,0,1,1,1,1,0,62.2321428571429,MK,Skopje,21.4361,42.0024,ECS,Z7,Europe & Central Asia,ECA,7E,Europe & Central Asia (excluding high income),UMC,XT,Upper middle income,IBD,XF,IBRD,North Macedonia,1,1,1,1,1,1,2081996
Mali,MLI,2017,25,0,0,0.5,0,1,0,0,0,1,0.5,0,0,37.5,1,0,0,1,0,0,1,0,33.3333333333333,0,0,0,0,0,0,1,1,0,0,0,1,1,0,1,14.2857142857143,0,1,0,0,0,0,0,27.5297619047619,ML,Bamako,-7.50034,13.5667,SSF,ZG,Sub-Saharan Africa ,SSA,ZF,Sub-Saharan Africa (excluding high income),LIC,XM,Low income,IDX,XI,IDA,Mali,0,0,0,0,1,1,18512394
